stop_lat,wheelchair_boarding,stop_code,stop_lon,stop_timezone,stop_url,parent_station,stop_desc,stop_name,location_type,stop_id,zone_id
38.176255,1,345.0,13.32601833,Europe/Rome,,,,CASTELFORTE - GIARDINO DELLA CONCORDIA,0,345,1
38.18595986,1,347.0,13.32358494,Europe/Rome,,,,CASTELFORTE - P.M. 64,0,347,1
38.17783833,1,340.0,13.32548833,Europe/Rome,,,,CASTELFORTE - BELLINZONA,0,340,1
38.195117865,1,342.0,13.31552658,Europe/Rome,,,,CASTELFORTE - CHIRONE,0,342,1
38.18095789,1,343.0,13.32512721,Europe/Rome,,,,CASTELFORTE - DE FONSECA,0,343,1
38.17456833,1,349.0,13.32646167,Europe/Rome,,,,CASTELFORTE - TRAPANI,0,349,1
38.08691333,1,1653.0,13.35546167,Europe/Rome,,,,REGIONE SICILIANA - DEL CIGNO,0,1653,1
38.0906632,1,512.0,13.3354041,Europe/Rome,,,,COSTA 1,0,512,1
38.0987677133,1,298.0,13.3196668133,Europe/Rome,,,,CALATAFIMI - RISERVA REALE,0,298,1
38.0944399333,1,299.0,13.3091507233,Europe/Rome,,,,CALATAFIMI - ROCCA,0,299,1
38.10707309,1,296.0,13.340059205,Europe/Rome,,,,CALATAFIMI - RAGUSA MOLETI,0,296,1
38.102633555,1,297.0,13.329168575,Europe/Rome,,,,CALATAFIMI - REGIONE SICILIANA,0,297,1
38.1116466667,1,294.0,13.3515066667,Europe/Rome,,,,CALATAFIMI - PORTA NUOVA,0,294,1
38.10662585,1,295.0,13.339139745,Europe/Rome,,,,CALATAFIMI - RAGUSA MOLETI,0,295,1
38.107471645,1,292.0,13.341255335,Europe/Rome,,,,CALATAFIMI - PINDEMONTE,0,292,1
38.107758335,1,293.0,13.34179917,Europe/Rome,,,,CALATAFIMI - PINDEMONTE,0,293,1
38.100275,1,290.0,13.3234155533,Europe/Rome,,,,CALATAFIMI - PIETRATAGLIATA,0,290,1
38.10014378,1,291.0,13.3230116133,Europe/Rome,,,,CALATAFIMI - PIETRATAGLIATA,0,291,1
38.1082044,1,270.0,13.342960245,Europe/Rome,,,,CALATAFIMI - CASERMA TUKORY,0,270,1
38.10848383,1,271.0,13.343573585,Europe/Rome,,,,CALATAFIMI - CASERMA TUKORY,0,271,1
38.0993383333,1,272.0,13.3210144467,Europe/Rome,,,,CALATAFIMI - CHINNICI,0,272,1
38.10203646,1,273.0,13.32777452,Europe/Rome,,,,CALATAFIMI - DE FILIPPO,0,273,1
38.10209192,1,274.0,13.32781112,Europe/Rome,,,,CALATAFIMI - DE FILIPPO,0,274,1
38.103645835,1,275.0,13.331753335,Europe/Rome,,,,CALATAFIMI - DRAGO,0,275,1
38.09235667,1,276.0,13.30573833,Europe/Rome,,,,CALATAFIMI - FONTANA DEL PESCATORE,0,276,1
38.09244667,1,277.0,13.30578167,Europe/Rome,,,,CALATAFIMI - FONTANA DEL PESCATORE,0,277,1
38.11030706,1,278.0,13.348176105,Europe/Rome,,,,CALATAFIMI - INDIPENDENZA,0,278,1
38.0994972233,1,279.0,13.32145111,Europe/Rome,,,,CALATAFIMI - LENIN MANCUSO,0,279,1
38.1187898625,1,2189.0,13.3691304275,Europe/Rome,,,,VITTORIO EMANUELE - S. MARIA DELLA CATENA,0,2189,1
38.075835,1,108.0,13.31023333,Europe/Rome,,,,AQUINO - CARTIERA,0,108,1
38.152776853,1,,13.3402428482,Europe/Rome,,,,STADIO - FANTE,1,60000,1
38.1435666667,1,102.0,13.3319700033,Europe/Rome,,,,AQUILEIA - DELLE ALPI,0,102,1
38.141521665,1,103.0,13.33346,Europe/Rome,,,,AQUILEIA - LAZIO,0,103,1
38.19937,1,100.0,13.317335,Europe/Rome,,,,APOLLO - AGLAIA,0,100,1
38.19810667,1,101.0,13.314575835,Europe/Rome,,,,APOLLO - CATALANO,0,101,1
38.07461261,1,106.0,13.30829367,Europe/Rome,,,,AQUINO - CALO',0,106,1
38.07588833,1,107.0,13.31022833,Europe/Rome,,,,AQUINO - CARTIERA,0,107,1
38.14171222,1,104.0,13.333185,Europe/Rome,,,,AQUILEIA - LAZIO,0,104,1
38.07466012,1,105.0,13.30828026,Europe/Rome,,,,AQUINO - CALO',0,105,1
38.2086299033,1,2046.0,13.3286987533,Europe/Rome,,,,TORRE - LI GRECI,0,2046,1
38.21039718,1,2047.0,13.3280440467,Europe/Rome,,,,TORRE - PIANO GALLO ESTERNA,0,2047,1
38.1796997433,1,2044.0,13.2954225633,Europe/Rome,,,,TOMMASO NATALE,0,2044,1
38.1796505567,1,2045.0,13.29539778,Europe/Rome,,,,TOMMASO NATALE,0,2045,1
38.187283334,1,2042.0,13.289393666,Europe/Rome,,,,TOMMASO NATALE - SOCRATE,0,2042,1
38.1866216667,1,2043.0,13.28987611,Europe/Rome,,,,TOMMASO NATALE - SOCRATE,0,2043,1
38.18467018,1,2040.0,13.29131548,Europe/Rome,,,,TOMMASO NATALE - PASSAGGIO A LIVELLO,0,2040,1
38.1848877767,1,2041.0,13.291035,Europe/Rome,,,,TOMMASO NATALE - PASSAGGIO A LIVELLO,0,2041,1
38.2104595263,1,2048.0,13.3279296937,Europe/Rome,,,,TORRE - PIANO GALLO INTERNA,0,2048,1
38.2063287717,1,2049.0,13.3252849017,Europe/Rome,,,,TORRE MONDELLO - TETI,0,2049,1
38.121908916,1,1655.0,13.329260366,Europe/Rome,,,,REGIONE SICILIANA - DI BLASI,0,1655,1
38.082349165,1,99.0,13.357098335,Europe/Rome,,,,ANTILOPE - GUIDO ROSSA,0,99,1
38.0840625,1,98.0,13.35623,Europe/Rome,,,,ANTILOPE - ERMELLINO,0,98,1
38.1439010975,1,91.0,13.36263013,Europe/Rome,,,,AMMIRAGLIO RIZZO - JUNG,0,91,1
38.143516325,1,90.0,13.3592853475,Europe/Rome,,,,AMMIRAGLIO RIZZO - GENERALE CASCINO,0,90,1
38.1443675,1,93.0,13.367676665,Europe/Rome,,,,AMMIRAGLIO RIZZO - PIAZZA ACQUASANTA,0,93,1
38.1440137475,1,92.0,13.3632446825,Europe/Rome,,,,AMMIRAGLIO RIZZO - JUNG,0,92,1
38.19519333,1,95.0,13.31477833,Europe/Rome,,,,ANTIGONE - CASTELFORTE,0,95,1
38.14435667,1,94.0,13.36738,Europe/Rome,,,,AMMIRAGLIO RIZZO - PIAZZA ACQUASANTA,0,94,1
38.194296935,1,97.0,13.313312085,Europe/Rome,,,,ANTIGONE - PORTA DI MARE,0,97,1
38.19319523,1,96.0,13.31166403,Europe/Rome,,,,ANTIGONE - NICOTI,0,96,1
38.1523973187,1,1991.0,13.3308459675,Europe/Rome,,,,STRASBURGO - BELGIO,0,1991,1
38.1545357471,1,1990.0,13.3286383714,Europe/Rome,,,,STRASBURGO - ALDISIO,0,1990,1
38.1512703633,1,1993.0,13.33169406,Europe/Rome,,,,STRASBURGO - BRIUCCIA,0,1993,1
38.1458459,1,1620.0,13.36777836,Europe/Rome,,,,RAMPOLLA - MONTINI,0,1620,1
38.19976015,1,1627.0,13.3283357309,Europe/Rome,,,,REGINA ELENA - IRIS,0,1627,1
38.2009214718,1,1626.0,13.3272299036,Europe/Rome,,,,REGINA ELENA - DELLE ROSE,0,1626,1
38.1985034036,1,1625.0,13.3297729764,Europe/Rome,,,,REGINA ELENA - COMMISSARIATO P.S.,0,1625,1
38.1534471243,1,1996.0,13.3296685229,Europe/Rome,,,,STRASBURGO - DANIMARCA,0,1996,1
38.15624919,1,1999.0,13.32712809,Europe/Rome,,,,STRASBURGO - FRANCIA,0,1999,1
38.1495857233,1,1998.0,13.33262877,Europe/Rome,,,,STRASBURGO - DE GASPERI,0,1998,1
38.2028215838,1,1629.0,13.3261829392,Europe/Rome,,,,REGINA ELENA - STABILIMENTO,0,1629,1
38.15058255,1,559.0,13.33893454,Europe/Rome,,,,CROCE ROSSA - DE GASPERI,0,559,1
38.17641886,1,558.0,13.366002165,Europe/Rome,,,,CRISTOFORO COLOMBO 3,0,558,1
38.171429265,1,555.0,13.36639971,Europe/Rome,,,,CRISTOFORO COLOMBO 5,0,555,1
38.172930175,1,554.0,13.366067905,Europe/Rome,,,,CRISTOFORO COLOMBO 4,0,554,1
38.180495455,1,557.0,13.36557706,Europe/Rome,,,,CRISTOFORO COLOMBO 2,0,557,1
38.184516665,1,551.0,13.363074165,Europe/Rome,,,,CRISTOFORO COLOMBO 1,0,551,1
38.17145833,1,550.0,13.36629,Europe/Rome,,,,CRISTOFORO COLOMBO 5,0,550,1
38.17655427,1,553.0,13.366062215,Europe/Rome,,,,CRISTOFORO COLOMBO 3,0,553,1
38.18044376,1,552.0,13.36567507,Europe/Rome,,,,CRISTOFORO COLOMBO 2,0,552,1
38.082365,1,1199.0,13.31075,Europe/Rome,,,,MOLARA - LUPO,0,1199,1
38.12765333,1,1198.0,13.29909,Europe/Rome,,,,MODICA - POZZILLO,0,1198,1
38.1371759975,1,1191.0,13.3201505925,Europe/Rome,,,,MICHELANGELO 7,0,1191,1
38.1360662025,1,1190.0,13.3164382475,Europe/Rome,,,,MICHELANGELO 6,0,1190,1
38.116215,1,1192.0,13.34420667,Europe/Rome,,,,MICHELE PIAZZA,0,1192,1
38.12629833,1,1196.0,13.29913167,Europe/Rome,,,,MODICA - CASTELLANA,0,1196,1
38.12489446,1,1759.0,13.358853392,Europe/Rome,,,,ROMA - BELMONTE,0,1759,1
38.12491977,1,1758.0,13.358742,Europe/Rome,,,,ROMA - BELMONTE,0,1758,1
38.11865094,1,1757.0,13.3625265975,Europe/Rome,,,,ROMA - BANDIERA,0,1757,1
38.103615115,1,1756.0,13.365165885,Europe/Rome,,,,ROCCO JEMMA,0,1756,1
38.09909167,1,1755.0,13.350945,Europe/Rome,,,,ROCCELLA - VITALI,0,1755,1
38.0982901467,1,1754.0,13.35062218,Europe/Rome,,,,ROCCELLA - VITALI,0,1754,1
38.09335467,1,1753.0,13.34677264,Europe/Rome,,,,ROCCELLA - VERDINOIS,0,1753,1
38.0976231433,1,1752.0,13.3500647467,Europe/Rome,,,,ROCCELLA - S. R. ARCANGELO,0,1752,1
38.097094165,1,1751.0,13.349335,Europe/Rome,,,,ROCCELLA - S. R. ARCANGELO,0,1751,1
38.09586981,1,1750.0,13.347987515,Europe/Rome,,,,ROCCELLA - RAITI,0,1750,1
38.132721356,1,1177.0,13.308185064,Europe/Rome,,,,MICHELANGELO - CAVA,0,1177,1
38.1344828625,1,1176.0,13.3127403675,Europe/Rome,,,,MICHELANGELO - CASALINI,0,1176,1
38.135555334,1,1175.0,13.314816334,Europe/Rome,,,,MICHELANGELO - BRUNELLESCHI,0,1175,1
38.1378645,1,1174.0,13.3230437533,Europe/Rome,,,,MICHELANGELO - BERNINI,0,1174,1
38.1366815975,1,1173.0,13.31800226,Europe/Rome,,,,MICHELANGELO - BADIA,0,1173,1
38.1371225533,1,1172.0,13.319195945,Europe/Rome,,,,MICHELANGELO - BADIA,0,1172,1
38.09731,1,1171.0,13.4186475025,Europe/Rome,,,,MESSINA MARINE 1,0,1171,1
38.0980530325,1,1170.0,13.4109768125,Europe/Rome,,,,MESSINA MARINE 2,0,1170,1
38.1329007175,1,1179.0,13.3090219875,Europe/Rome,,,,MICHELANGELO - FRONTINI,0,1179,1
38.138490835,1,1178.0,13.32579083,Europe/Rome,,,,MICHELANGELO - FELICE,0,1178,1
38.08611167,1,511.0,13.33253333,Europe/Rome,,,,COSTA - BACHELET,0,511,1
38.13859333,1,510.0,13.30559333,Europe/Rome,,,,COSENZ 3,0,510,1
38.08895117,1,513.0,13.33513856,Europe/Rome,,,,COSTA 2,0,513,1
38.07875306,1,1285.0,13.315634205,Europe/Rome,,,,OLIO DI LINO 7,0,1285,1
38.0793225,1,1284.0,13.31652,Europe/Rome,,,,OLIO DI LINO 6,0,1284,1
38.0792725,1,1287.0,13.31652583,Europe/Rome,,,,OLIO DI LINO 9,0,1287,1
38.078712945,1,1286.0,13.315585925,Europe/Rome,,,,OLIO DI LINO 8,0,1286,1
38.08318,1,1281.0,13.324423335,Europe/Rome,,,,OLIO DI LINO 3,0,1281,1
38.084002025,1,1280.0,13.325390725,Europe/Rome,,,,OLIO DI LINO 2,0,1280,1
38.080867155,1,1283.0,13.31891535,Europe/Rome,,,,OLIO DI LINO 5,0,1283,1
38.08129848,1,1282.0,13.320704195,Europe/Rome,,,,OLIO DI LINO 4,0,1282,1
38.126613485,1,1003.0,13.31135053,Europe/Rome,,,,LEONARDO DA VINCI - TOMASI DI LAMPEDUSA,0,1003,1
38.1043418314,1,1289.0,13.3688353643,Europe/Rome,,,,ORETO - BERGAMO,0,1289,1
38.1048338571,1,1288.0,13.3684220514,Europe/Rome,,,,ORETO - BERGAMO,0,1288,1
38.167886095,1,514.0,13.323998415,Europe/Rome,,,,COTTOLENGO - S. COSMA,0,514,1
38.197819165,1,1579.0,13.308575,Europe/Rome,,,,POLIBIO - EOLO,0,1579,1
38.197309865,1,1578.0,13.30698366,Europe/Rome,,,,POLIBIO - AMARILLI,0,1578,1
38.052075,1,689.0,13.309585,Europe/Rome,,,,DEL FANTE - DEL BERSAGLIERE,0,689,1
38.05541333,1,688.0,13.31223,Europe/Rome,,,,DEL FANTE - DEI CORAZZIERI,0,688,1
38.1994196667,1,1573.0,13.2697115767,Europe/Rome,,,,PLAUTO - BAIA DEL CORALLO,0,1573,1
38.1100475,1,1572.0,13.3182875,Europe/Rome,,,,PITRE' 6,0,1572,1
38.110375835,1,1571.0,13.32231167,Europe/Rome,,,,PITRE' 5,0,1571,1
38.110356665,1,1570.0,13.322924165,Europe/Rome,,,,PITRE' 3,0,1570,1
38.1978349967,1,1577.0,13.2724672233,Europe/Rome,,,,PLAUTO - LEONE,0,1577,1
38.1984349233,1,1576.0,13.2709608433,Europe/Rome,,,,PLAUTO - FLORIO,0,1576,1
38.19878,1,1575.0,13.2706177767,Europe/Rome,,,,PLAUTO - FLORIO,0,1575,1
38.1990430233,1,1574.0,13.27012796,Europe/Rome,,,,PLAUTO - BAIA DEL CORALLO,0,1574,1
38.11310384,1,1348.0,13.30640271,Europe/Rome,,,,PANDOLFINI,0,1348,1
38.09049333,1,622.0,13.41586333,Europe/Rome,,,,DEI MILLE - CATALANO,0,622,1
38.15503583,1,1240.0,13.320036665,Europe/Rome,,,,NENNI - CROCE ROSSA ITALIANA,0,1240,1
38.09781792,1,621.0,13.39418249,Europe/Rome,,,,DEI MILLE - CARNEVALE,0,621,1
38.101117165,1,620.0,13.38247313,Europe/Rome,,,,DEI MILLE - CAMPO,0,620,1
38.093613045,1,627.0,13.406242365,Europe/Rome,,,,DEI MILLE - CILUFFO,0,627,1
38.093755,1,626.0,13.405625,Europe/Rome,,,,DEI MILLE - CILUFFO,0,626,1
38.1380575833,1,1221.0,13.3582493667,Europe/Rome,,,,MONTEPELLEGRINO - MONTALBO,0,1221,1
38.188848912,1,1243.0,13.297099082,Europe/Rome,,,,NICOLETTI - PIAZZA BOLIVAR,0,1243,1
38.1374535833,1,1220.0,13.3585735567,Europe/Rome,,,,MONTEPELLEGRINO - MONTALBO,0,1220,1
38.1456155325,1,1371.0,13.369975705,Europe/Rome,,,,PAPA SERGIO - VILLA IGIEA,0,1371,1
38.151511855,1,1370.0,13.370662675,Europe/Rome,,,,PAPA SERGIO - TONNARA,0,1370,1
38.1167627933,1,1373.0,13.35197261,Europe/Rome,,,,PAPIRETO - PIAZZA DEL NOVIZIATO,0,1373,1
38.1151329367,1,1372.0,13.3535989767,Europe/Rome,,,,PAPIRETO - MERCATO DELLE PULCI,0,1372,1
38.092885,1,1375.0,13.37456667,Europe/Rome,,,,PARATORE - REGIONE SICILIANA,0,1375,1
38.09619333,1,1374.0,13.37203333,Europe/Rome,,,,PARATORE - ORSA MINORE,0,1374,1
38.09773375,1,1377.0,13.3454858325,,,30000.0,,PARCHEGGIO BASILE CORSIA ESTERNA,0,1377,1
38.09455333,1,1376.0,13.37351667,Europe/Rome,,,,PARATORE,0,1376,1
38.1163875017,1,1379.0,13.3316841667,,,40000.0,,PARCHEGGIO DEGLI EMIRI,0,1379,1
38.09788333,1,1378.0,13.34533667,,,30000.0,,PARCHEGGIO BASILE CORSIA INTERNA,0,1378,1
38.19851333,1,1342.0,13.254125,Europe/Rome,,,,PALERMO - CAMPING,0,1342,1
38.09163637,1,409.0,13.36879224,Europe/Rome,,,,CHIAVELLI - AL CASALE,0,409,1
38.10638333,1,408.0,13.35822667,Europe/Rome,,,,CHIARAMONTE,0,408,1
38.1985028,1,1343.0,13.25453416,Europe/Rome,,,,PALERMO - CAMPING,0,1343,1
38.189010888,1,1242.0,13.296651642,Europe/Rome,,,,NICOLETTI - PIAZZA BOLIVAR,0,1242,1
38.19858,1,1344.0,13.25100333,Europe/Rome,,,,PALERMO - PIANO LEVANTE,0,1344,1
38.10068552,1,1345.0,13.3377403,Europe/Rome,,,,PALMERINO - SCHIFANI,0,1345,1
38.09954573,1,1346.0,13.33655477,Europe/Rome,,,,PALMERINO - SCONTRINO,0,1346,1
38.09849035,1,1347.0,13.33471209,Europe/Rome,,,,PALMERINO - VINCI,0,1347,1
38.19060732,1,1245.0,13.29172432,Europe/Rome,,,,NICOLETTI,0,1245,1
38.12571112,1,379.0,13.29342586,Europe/Rome,,,,CASTELLANA 3,0,379,1
38.125733475,1,378.0,13.30614107,Europe/Rome,,,,CASTELLANA - ZAIRE,0,378,1
38.12613848,1,371.0,13.2891574,Europe/Rome,,,,CASTELLANA - SPADAFORA,0,371,1
38.12622323,1,370.0,13.288847605,Europe/Rome,,,,CASTELLANA - SPADAFORA,0,370,1
38.125642275,1,373.0,13.308279525,Europe/Rome,,,,CASTELLANA - TEMBIEN,0,373,1
38.1256129,1,372.0,13.30892466,Europe/Rome,,,,CASTELLANA - TEMBIEN,0,372,1
38.126301875,1,375.0,13.287486395,Europe/Rome,,,,CASTELLANA - TROMBADORI,0,375,1
38.12572737,1,374.0,13.310473635,Europe/Rome,,,,CASTELLANA - TOBRUK,0,374,1
38.12566354,1,377.0,13.30666557,Europe/Rome,,,,CASTELLANA - ZAIRE,0,377,1
38.125733665,1,376.0,13.29675819,Europe/Rome,,,,CASTELLANA - VILLA DELLE GINESTRE,0,376,1
38.19341833,1,1244.0,13.28618833,Europe/Rome,,,,NICOLETTI - T.S. 49,0,1244,1
38.137355,1,393.0,13.29929667,Europe/Rome,,,,CELONA 2,0,393,1
38.13703333,1,392.0,13.30327667,Europe/Rome,,,,CELONA 1,0,392,1
38.13466206,1,391.0,13.30557525,Europe/Rome,,,,CELONA - CENTORBE,0,391,1
38.121507815,1,390.0,13.359067215,Europe/Rome,,,,CAVOUR,0,390,1
38.13699,1,397.0,13.30319833,Europe/Rome,,,,CELONA 6,0,397,1
38.13825694,1,396.0,13.29760373,Europe/Rome,,,,CELONA 5,0,396,1
38.13921333,1,395.0,13.29621167,Europe/Rome,,,,CELONA 4,0,395,1
38.13844167,1,394.0,13.29752,Europe/Rome,,,,CELONA 3,0,394,1
38.13426,1,399.0,13.305615,Europe/Rome,,,,CENTORBE - TORRE INGASTONE,0,399,1
38.133445,1,398.0,13.307915,Europe/Rome,,,,CENTORBE,0,398,1
38.1161109725,1,1247.0,13.3320064,,,40000.0,,NINA SICILIANA - PARCHEGGIO EMIRI,0,1247,1
38.125275,1,245.0,13.29670333,Europe/Rome,,,,BRONTE - CASTELLANA,0,245,1
38.144679665,1,244.0,13.34065409,Europe/Rome,,,,BRIGATA VERONA - SICILIA,0,244,1
38.12472667,1,247.0,13.29491,Europe/Rome,,,,BRONTE 2,0,247,1
38.12469833,1,246.0,13.29305833,Europe/Rome,,,,BRONTE 1,0,246,1
38.08711665,1,241.0,13.38179961,Europe/Rome,,,,BRASCA 4,0,241,1
38.08578665,1,240.0,13.37993816,Europe/Rome,,,,BRASCA 3,0,240,1
38.1445477767,1,243.0,13.3405194467,Europe/Rome,,,,BRIGATA VERONA - SICILIA,0,243,1
38.14322607,1,242.0,13.3385573,Europe/Rome,,,,BRIGATA VERONA - LIGURIA,0,242,1
38.1370310767,1,249.0,13.3135304033,Europe/Rome,,,,BRUNELLESCHI - BESIO,0,249,1
38.13732389,1,248.0,13.31367111,Europe/Rome,,,,BRUNELLESCHI - BESIO,0,248,1
38.10347,1,179.0,13.32203833,Europe/Rome,,,,BASILE - PIETRATAGLIATA,0,179,1
38.097550835,1,178.0,13.34550083,Europe/Rome,,,,BASILE - PARCHEGGIO BASILE,0,178,1
38.096481798,1,177.0,13.343728474,Europe/Rome,,,,BASILE - MEDAGLIE D'ORO,0,177,1
38.1028708757,1,176.0,13.3488296271,Europe/Rome,,,,BASILE - FACOLTA' DI LETTERE,0,176,1
38.1054395857,1,175.0,13.3513776343,Europe/Rome,,,,BASILE - FACOLTA' DI INGEGNERIA,0,175,1
38.1037026186,1,174.0,13.3496802386,Europe/Rome,,,,BASILE - FACOLTA' DI INGEGNERIA,0,174,1
38.1042376857,1,173.0,13.3500355029,Europe/Rome,,,,BASILE - FACOLTA' DI ECONOMIA E COMMERCIO,0,173,1
38.095619062,1,172.0,13.3421102,Europe/Rome,,,,BASILE - BRASA,0,172,1
38.10326333,1,171.0,13.32377667,Europe/Rome,,,,BASILE - BRAILLE,0,171,1
38.103265,1,170.0,13.32372,Europe/Rome,,,,BASILE - BRAILLE,0,170,1
38.1977327767,1,2051.0,13.2730188867,Europe/Rome,,,,TORRETTA,0,2051,1
38.116875,1,2050.0,13.37246167,Europe/Rome,,,,TORREMUZZA - S.M. DELLA PIETA',0,2050,1
38.198422066,1,2053.0,13.2761541,Europe/Rome,,,,TORRETTA - COSMA E DAMIANO,0,2053,1
38.197988686,1,2052.0,13.274737628,Europe/Rome,,,,TORRETTA - CATULLO,0,2052,1
38.1495399667,1,2055.0,13.31549063,Europe/Rome,,,,TRABUCCO - GIUFFRE',0,2055,1
38.14863683,1,2054.0,13.3154074433,Europe/Rome,,,,TRABUCCO - CERVELLO,0,2054,1
38.14729237,1,2057.0,13.31556365,Europe/Rome,,,,TRABUCCO - PRESTIGIACOMO,0,2057,1
38.1538468067,1,2056.0,13.3156911967,Europe/Rome,,,,TRABUCCO - OSPEDALE CERVELLO,0,2056,1
38.15139856,1,2059.0,13.3155031933,Europe/Rome,,,,TRABUCCO - ROENTGEN,0,2059,1
38.15489611,1,2058.0,13.3172205567,Europe/Rome,,,,TRABUCCO - REGIONE SICILIANA,0,2058,1
38.190241002,1,1500.0,13.285527666,Europe/Rome,,,,PIAZZA TOMMASO NATALE,0,1500,1
38.1885084167,1,1501.0,13.2879546933,Europe/Rome,,,,PIAZZA TOMMASO NATALE - PIAZZA MANDORLE,0,1501,1
38.05950885,1,1506.0,13.31783026,Europe/Rome,,,,PIAZZA VILLACIAMBRA,0,1506,1
38.05925543,1,1507.0,13.31750974,Europe/Rome,,,,PIAZZA VILLACIAMBRA,0,1507,1
38.146843335,1,1367.0,13.3703820825,Europe/Rome,,,,PAPA SERGIO - OSPEDALE ALBANESE,0,1367,1
38.120969735,1,1505.0,13.357354625,Europe/Rome,,,,PIAZZA VERDI,0,1505,1
38.1497834075,1,1364.0,13.370733595,Europe/Rome,,,,PAPA SERGIO - DI LEO,0,1364,1
38.13268167,1,1601.0,13.33712667,Europe/Rome,,,,PRINCIPE DI PALAGONIA - BORREMANS,0,1601,1
38.13281667,1,1600.0,13.337185,Europe/Rome,,,,PRINCIPE DI PALAGONIA - BORREMANS,0,1600,1
38.1995578245,1,1603.0,13.3271622845,Europe/Rome,,,,PRINCIPE DI SCALEA - AMAP,0,1603,1
38.15447547,1,1365.0,13.37058563,Europe/Rome,,,,PAPA SERGIO - LAVITRANO,0,1365,1
38.1339872233,1,1602.0,13.3365794433,Europe/Rome,,,,PRINCIPE DI PALAGONIA - CARCERE MINORILE,0,1602,1
38.2047253123,1,1605.0,13.3241061438,Europe/Rome,,,,PRINCIPE DI SCALEA - MONDELLO,0,1605,1
38.2013107518,1,1604.0,13.3255325564,Europe/Rome,,,,PRINCIPE DI SCALEA - GALATEA,0,1604,1
38.1969553936,1,1607.0,13.3310097136,Europe/Rome,,,,PRINCIPE DI SCALEA - VALDESI,0,1607,1
38.1983829745,1,1606.0,13.3284931345,Europe/Rome,,,,PRINCIPE DI SCALEA - OLEANDRI,0,1606,1
38.1563528125,1,1362.0,13.3706796025,Europe/Rome,,,,PAPA SERGIO - CHIMICA ARENELLA,0,1362,1
38.12209231,1,1968.0,13.35541472,Europe/Rome,,,,STABILE - PIAZZALE UNGHERIA,0,1968,1
38.12314945,1,1969.0,13.35801646,Europe/Rome,,,,STABILE - WAGNER,0,1969,1
38.14695544,1,1618.0,13.36660624,Europe/Rome,,,,RAMPOLLA - BONANNO,0,1618,1
38.14754167,1,1619.0,13.36606167,Europe/Rome,,,,RAMPOLLA - BONANNO,0,1619,1
38.09643833,1,1616.0,13.34665833,Europe/Rome,,,,RAITI,0,1616,1
38.096848335,1,1617.0,13.3461375,Europe/Rome,,,,RAITI,0,1617,1
38.1450392375,1,1614.0,13.35730416,Europe/Rome,,,,RABIN - CASERMA CASCINO,0,1614,1
38.1467387025,1,1615.0,13.357024445,Europe/Rome,,,,RABIN - SCALA VECCHIA,0,1615,1
38.09927672,1,1960.0,13.400135905,Europe/Rome,,,,SPERONE - PIAZZA ACHILLE GRANDI,0,1960,1
38.09933219,1,1961.0,13.40020175,Europe/Rome,,,,SPERONE - PIAZZA ACHILLE GRANDI,0,1961,1
38.20857611,1,1610.0,13.28242833,Europe/Rome,,,,PUNTA BARCARELLO,0,1610,1
38.20849319,1,1611.0,13.2823364267,Europe/Rome,,,,PUNTA BARCARELLO,0,1611,1
38.15034602,1,1363.0,13.370773535,Europe/Rome,,,,PAPA SERGIO - DI LEO,0,1363,1
38.12087146,1,1768.0,13.361507405,Europe/Rome,,,,ROMA - POSTE,0,1768,1
38.1191755367,1,1769.0,13.3623557683,Europe/Rome,,,,ROMA - S. DOMENICO,0,1769,1
38.111930186,1,1762.0,13.365922298,Europe/Rome,,,,ROMA - FS,0,1762,1
38.1157290675,1,1763.0,13.363966275,Europe/Rome,,,,ROMA - LATTARINI,0,1763,1
38.12260154,1,1760.0,13.3603593733,Europe/Rome,,,,ROMA - CAVOUR,0,1760,1
38.1122839725,1,1761.0,13.3656738325,Europe/Rome,,,,ROMA - FIUME,0,1761,1
38.1137899767,1,1766.0,13.3649779533,Europe/Rome,,,,ROMA - PALAZZO GANCI,0,1766,1
38.120207385,1,1767.0,13.3617666,Europe/Rome,,,,ROMA - POSTE,0,1767,1
38.115620638,1,1764.0,13.364062714,Europe/Rome,,,,ROMA - LATTARINI,0,1764,1
38.1140052175,1,1765.0,13.364804465,Europe/Rome,,,,ROMA - PALAZZO GANCI,0,1765,1
38.1066726133,1,1142.0,13.3843094717,Europe/Rome,,,,MESSINA MARINE - CAPPELLO,0,1142,1
38.106793502,1,1143.0,13.383912234,Europe/Rome,,,,MESSINA MARINE - CAPPELLO,0,1143,1
38.1061073767,1,1140.0,13.3866461683,Europe/Rome,,,,MESSINA MARINE - BUCCHERI LA FERLA,0,1140,1
38.106473292,1,1141.0,13.385708166,Europe/Rome,,,,MESSINA MARINE - BUCCHERI LA FERLA,0,1141,1
38.09665712,1,1146.0,13.42157274,Europe/Rome,,,,MESSINA MARINE - CLEMENTE,0,1146,1
38.103315005,1,1147.0,13.3932677675,Europe/Rome,,,,MESSINA MARINE - CLOBER,0,1147,1
38.1000422233,1,1144.0,13.4028072233,Europe/Rome,,,,MESSINA MARINE - CARACAUSI,0,1144,1
38.10043611,1,1145.0,13.4017644433,Europe/Rome,,,,MESSINA MARINE - CARACAUSI,0,1145,1
38.10544636,1,1148.0,13.3885569125,Europe/Rome,,,,MESSINA MARINE - D' AOSTA,0,1148,1
38.10588107,1,1149.0,13.387685048,Europe/Rome,,,,MESSINA MARINE - D' AOSTA,0,1149,1
38.10703951,1,1546.0,13.34690407,Europe/Rome,,,,PISANI - ONORATO,0,1546,1
38.109442425,1,1547.0,13.312153735,Europe/Rome,,,,PITRE' - AEROCLUB,0,1547,1
38.10647389,1,1544.0,13.34499836,Europe/Rome,,,,PISANI - INGRIA,0,1544,1
38.10695404,1,1545.0,13.34617451,Europe/Rome,,,,PISANI - ONORATO,0,1545,1
38.10906333,1,1542.0,13.34974833,Europe/Rome,,,,PISANI - INDIPENDENZA,0,1542,1
38.10646756,1,1543.0,13.3448267,Europe/Rome,,,,PISANI - INGRIA,0,1543,1
38.10842295,1,1540.0,13.34901363,Europe/Rome,,,,PISANI - DOTTO,0,1540,1
38.1093505,1,1541.0,13.34996849,Europe/Rome,,,,PISANI - INDIPENDENZA,0,1541,1
38.16127389,1,698.0,13.3342477767,Europe/Rome,,,,DEL FANTE - VILLA ROSATO,0,698,1
38.1055225,1,699.0,13.362644165,Europe/Rome,,,,DEL VESPRO - DELLE CLINICHE,0,699,1
38.1094625,1,1548.0,13.311328335,Europe/Rome,,,,PITRE' - AEROCLUB,0,1548,1
38.11046167,1,1549.0,13.336315,Europe/Rome,,,,PITRE' - ALTARELLO,0,1549,1
38.1930205567,1,542.0,13.3412877767,Europe/Rome,,,,CRISTOFORO COLOMBO - PIETRO ROMBULO,0,542,1
38.1901698867,1,543.0,13.3454632767,Europe/Rome,,,,CRISTOFORO COLOMBO - ROOSEVELT,0,543,1
38.1889319733,1,540.0,13.34838108,Europe/Rome,,,,CRISTOFORO COLOMBO - PIETRO DE GUEVARA,0,540,1
38.1931194467,1,541.0,13.34097111,Europe/Rome,,,,CRISTOFORO COLOMBO - PIETRO ROMBULO,0,541,1
38.1669265225,1,547.0,13.3661510425,Europe/Rome,,,,CRISTOFORO COLOMBO - VERGINE MARIA,0,547,1
38.18994389,1,544.0,13.3459572233,Europe/Rome,,,,CRISTOFORO COLOMBO - ROOSEVELT,0,544,1
38.10860128,1,1781.0,13.29789072,Europe/Rome,,,,RUFFO DI CALABRIA 1,0,1781,1
38.185035415,1,548.0,13.362438635,Europe/Rome,,,,CRISTOFORO COLOMBO 1,0,548,1
38.17295919,1,549.0,13.36601651,Europe/Rome,,,,CRISTOFORO COLOMBO 4,0,549,1
38.11039728,1,1782.0,13.2966502,Europe/Rome,,,,RUFFO DI CALABRIA 2,0,1782,1
38.11240004,1,1783.0,13.29531983,Europe/Rome,,,,RUFFO DI CALABRIA 3,0,1783,1
38.12422,1,1784.0,13.318355,Europe/Rome,,,,RUGGERI - DI BLASI,0,1784,1
38.12475046,1,1785.0,13.318396625,Europe/Rome,,,,RUGGERI - DI BLASI,0,1785,1
38.12593573,1,1786.0,13.31827819,Europe/Rome,,,,RUGGERI - LEONARDO DA VINCI,0,1786,1
38.085768215,1,414.0,13.369231075,Europe/Rome,,,,CHIAVELLI - COLNAGO,0,414,1
38.09491884,1,415.0,13.36879492,Europe/Rome,,,,CHIAVELLI - ORSA MINORE,0,415,1
38.094955,1,416.0,13.36871167,Europe/Rome,,,,CHIAVELLI - ORSA MINORE,0,416,1
38.09302642,1,417.0,13.36874127,Europe/Rome,,,,CHIAVELLI - PLEIADI,0,417,1
38.09158781,1,410.0,13.36876005,Europe/Rome,,,,CHIAVELLI - AL CASALE,0,410,1
38.08198342,1,411.0,13.367608025,Europe/Rome,,,,CHIAVELLI - BAGNERA,0,411,1
38.096545,1,412.0,13.368856665,Europe/Rome,,,,CHIAVELLI - CADUTI DELL'8 LUGLIO 1960,0,412,1
38.079980265,1,413.0,13.36815253,Europe/Rome,,,,CHIAVELLI - CARDINALE,0,413,1
38.12580667,1,1384.0,13.33747,Europe/Rome,,,,PARISIO - FALCANDO,0,1384,1
38.12526833,1,1385.0,13.33524667,Europe/Rome,,,,PARISIO - LANCIA DI BROLO,0,1385,1
38.12509667,1,1386.0,13.334265,Europe/Rome,,,,PARISIO - LANCIA DI BROLO,0,1386,1
38.12512278,1,1387.0,13.34361,Europe/Rome,,,,PARLATORE - ADRIA,0,1387,1
38.09312667,1,418.0,13.36867167,Europe/Rome,,,,CHIAVELLI - PLEIADI,0,418,1
38.09013862,1,419.0,13.36947352,Europe/Rome,,,,CHIAVELLI - SACCONE,0,419,1
38.125554066,1,368.0,13.298968806,Europe/Rome,,,,CASTELLANA - S. ISIDORO,0,368,1
38.1267918467,1,369.0,13.28359958,Europe/Rome,,,,CASTELLANA - SCALA DI CARINI,0,369,1
38.125727895,1,366.0,13.311358765,Europe/Rome,,,,CASTELLANA - ROCCAZZO,0,366,1
38.12560137,1,367.0,13.300972415,Europe/Rome,,,,CASTELLANA - ROGAZIONISTI,0,367,1
38.1258225,1,364.0,13.292296665,Europe/Rome,,,,CASTELLANA - PANTALICA,0,364,1
38.1260965,1,365.0,13.2920147425,Europe/Rome,,,,CASTELLANA - PANTALICA,0,365,1
38.12580004,1,362.0,13.29841292,Europe/Rome,,,,CASTELLANA - MODICA,0,362,1
38.1254412025,1,363.0,13.293487205,Europe/Rome,,,,CASTELLANA - MONTEVAGO,0,363,1
38.12584163,1,360.0,13.3000287533,Europe/Rome,,,,CASTELLANA - LERCARA,0,360,1
38.12639,1,361.0,13.287111665,Europe/Rome,,,,CASTELLANA - LEVI,0,361,1
38.18135833,1,380.0,13.31571,Europe/Rome,,,,CASTELLOTTI - AGESIA DI SIRACUSA,0,380,1
38.18294833,1,381.0,13.31454333,Europe/Rome,,,,CASTELLOTTI - MARCIANO,0,381,1
38.13579603,1,382.0,13.2943435,Europe/Rome,,,,CASTRONOVO,0,382,1
38.10524449,1,383.0,13.34273994,Europe/Rome,,,,CATALANO - COSINA,0,383,1
38.10360667,1,384.0,13.34110111,Europe/Rome,,,,CATALANO - LOI,0,384,1
38.104115,1,385.0,13.34170833,Europe/Rome,,,,CATALANO - LOI,0,385,1
38.197700134,1,386.0,13.27466034,Europe/Rome,,,,CATULLO,0,386,1
38.196685185,1,387.0,13.3153624575,Europe/Rome,,,,CAVARRETTA - CASTELFORTE,0,387,1
38.198231532,1,388.0,13.318298632,Europe/Rome,,,,CAVARRETTA - SALINE,0,388,1
38.1974105825,1,389.0,13.3167474975,Europe/Rome,,,,CAVARRETTA - TUBEROSA,0,389,1
38.07290759,1,109.0,13.29762653,Europe/Rome,,,,AQUINO - FONDO PASQUALINO,0,109,1
38.088835,1,1077.0,13.31634667,Europe/Rome,,,,MAIO ONETO 2,0,1077,1
38.118880685,1,2190.0,13.369238825,Europe/Rome,,,,VITTORIO EMANUELE - S. MARIA DELLA CATENA,0,2190,1
38.07904667,1,2191.0,13.439045,Europe/Rome,,,,VITTORIO EMANUELE - UMBERTO I,0,2191,1
38.1129316925,1,2192.0,13.3547018825,Europe/Rome,,,,VITTORIO EMANUELE - VILLA BONANNO,0,2192,1
38.11676309,1,2193.0,13.36415604,Europe/Rome,,,,VITTORIO EMANUELE - VUCCIRIA,0,2193,1
38.11686544,1,2194.0,13.36427942,Europe/Rome,,,,VITTORIO EMANUELE - VUCCIRIA,0,2194,1
38.076955,1,2195.0,13.44472167,Europe/Rome,,,,VITTORIO EMANUELE - XXIV MAGGIO,0,2195,1
38.1195102575,1,2196.0,13.353973135,Europe/Rome,,,,VOLTURNO - CAPO,0,2196,1
38.09528167,1,2197.0,13.40349833,Europe/Rome,,,,XXVII MAGGIO - DEI MILLE,0,2197,1
38.09548333,1,2198.0,13.40361333,Europe/Rome,,,,XXVII MAGGIO - LI PUMA,0,2198,1
38.10262833,1,253.0,13.37399167,Europe/Rome,,,,BUONRIPOSO,0,253,1
38.13883222,1,250.0,13.3139594433,Europe/Rome,,,,BRUNELLESCHI - BUONFORNELLO,0,250,1
38.13885927,1,251.0,13.31386127,Europe/Rome,,,,BRUNELLESCHI - BUONFORNELLO,0,251,1
38.10367105,1,256.0,13.37422773,Europe/Rome,,,,BUONRIPOSO - PIAZZA SCAFFA,0,256,1
38.10374808,1,257.0,13.37432832,Europe/Rome,,,,BUONRIPOSO - PIAZZA SCAFFA,0,257,1
38.0986915767,1,254.0,13.3712540533,Europe/Rome,,,,BUONRIPOSO - CAMPISI,0,254,1
38.09992566,1,255.0,13.37306634,Europe/Rome,,,,BUONRIPOSO - ORETO,0,255,1
38.09285667,1,2200.0,13.40260333,Europe/Rome,,,,ZABAN - PECORAINO,0,2200,1
38.0931904,1,2201.0,13.402867185,Europe/Rome,,,,ZABAN - PECORAINO,0,2201,1
38.09298,1,2202.0,13.344588335,Europe/Rome,,,,ZACCO,0,2202,1
38.093071665,1,2203.0,13.34462,Europe/Rome,,,,ZACCO,0,2203,1
38.1781894133,1,2204.0,13.3124327383,Europe/Rome,,,,ZAPPA,0,2204,1
38.17882333,1,2205.0,13.313445,Europe/Rome,,,,ZAPPA - S. NICOLA,0,2205,1
38.1385441667,1,2206.0,13.3354749983,Europe/Rome,,,,ZAPPALA',0,2206,1
38.1390666667,1,2207.0,13.3352744433,Europe/Rome,,,,ZAPPALA',0,2207,1
38.166369165,1,2208.0,13.30501417,Europe/Rome,,,,ZONA INDUSTRIALE - CITTA' GIARDINO,0,2208,1
38.15769167,1,2209.0,13.31566,Europe/Rome,,,,ZONA INDUSTRIALE - GIOE',0,2209,1
38.1267196833,1,900.0,13.3314255567,Europe/Rome,,,,HOLM - SCOBAR,0,900,1
38.19626881,1,901.0,13.31179203,Europe/Rome,,,,IANDOLINO,0,901,1
38.1003107557,1,169.0,13.34710687,Europe/Rome,,,,BASILE - ARTALE,0,169,1
38.2048022967,1,164.0,13.2809822667,Europe/Rome,,,,BARCARELLO 4,0,164,1
38.1209594575,1,165.0,13.3659949775,Europe/Rome,,,,BARILLAI - S. SEBASTIANO,0,165,1
38.094861665,1,166.0,13.343716665,Europe/Rome,,,,BARONE,0,166,1
38.095252,1,167.0,13.341882668,Europe/Rome,,,,BASILE - ANELLI,0,167,1
38.10980636,1,160.0,13.30055282,Europe/Rome,,,,BARACCA 4,0,160,1
38.2046583233,1,161.0,13.28085793,Europe/Rome,,,,BARCARELLO 1,0,161,1
38.2063928,1,162.0,13.2824516567,Europe/Rome,,,,BARCARELLO 2,0,162,1
38.2065920667,1,163.0,13.2824062,Europe/Rome,,,,BARCARELLO 3,0,163,1
38.1300589595,1,,13.352219555,Europe/Rome,,,,CROCI - MORDINI,1,70000,1
38.110505995,1,1980.0,13.36711743,,,20000.0,,STAZIONE CENTRALE - LINCOLN,0,1980,1
38.10526032,1,1841.0,13.3010973,Europe/Rome,,,,S. MARTINO 1,0,1841,1
38.1056856,1,1840.0,13.30047771,Europe/Rome,,,,S. MARTINO - TORRENTE D'INVERNO,0,1840,1
38.1996098067,1,1090.0,13.2800016733,Europe/Rome,,,,MANDERINO - FILISTO,0,1090,1
38.19832903,1,1091.0,13.27810152,Europe/Rome,,,,MANDERINO - TERENZIO,0,1091,1
38.163572144,1,1814.0,13.32206938,Europe/Rome,,,,S. LORENZO - MARINAI D'ITALIA,0,1814,1
38.16734583,1,1815.0,13.314879745,Europe/Rome,,,,S. LORENZO - SAVAGNONE,0,1815,1
38.167201915,1,1816.0,13.31505912,Europe/Rome,,,,S. LORENZO - SAVAGNONE,0,1816,1
38.1605353267,1,1817.0,13.32854687,Europe/Rome,,,,S. LORENZO - SERRETTA,0,1817,1
38.16082902,1,1810.0,13.3272516833,Europe/Rome,,,,S. LORENZO - LARGO S. LORENZO,0,1810,1
38.1607044433,1,1811.0,13.3276427767,Europe/Rome,,,,S. LORENZO - LARGO S. LORENZO,0,1811,1
38.1693651125,1,1812.0,13.310173575,Europe/Rome,,,,S. LORENZO - LO VALVO,0,1812,1
38.1695679925,1,1813.0,13.306574135,Europe/Rome,,,,S. LORENZO - LO VALVO,0,1813,1
38.1645203329,1,1818.0,13.3187953671,Europe/Rome,,,,S. LORENZO - STAZIONE FS,0,1818,1
38.1693229125,1,1819.0,13.3083078975,Europe/Rome,,,,S. LORENZO - VALLOTTA,0,1819,1
38.1255959907,1,,13.3571651607,Europe/Rome,,,,STURZO - POLITEAMA,1,80000,1
38.182038194,1,1098.0,13.3341515,Europe/Rome,,,,MARGHERITA DI SAVOIA - CRUDELI,0,1098,1
38.18095292,1,1099.0,13.334341665,Europe/Rome,,,,MARGHERITA DI SAVOIA - CRUDELI,0,1099,1
38.12672275,1,1609.0,13.35732311,Europe/Rome,,,,PUGLISI BERTOLINO,0,1609,1
38.155885,1,1608.0,13.34453833,Europe/Rome,,,,PROTEZIONE CIVILE,0,1608,1
38.10987333,1,1979.0,13.36644167,,,20000.0,,STAZIONE CENTRALE - GIULIO CESARE,0,1979,1
38.109238825,1,1978.0,13.3669747275,,,20000.0,,STAZIONE CENTRALE - CUPANI 3,0,1978,1
38.10916936,1,1977.0,13.366809085,,,20000.0,,STAZIONE CENTRALE - CUPANI 2,0,1977,1
38.10939719,1,1976.0,13.3665822625,,,20000.0,,STAZIONE CENTRALE - CUPANI 1,0,1976,1
38.1102462525,1,1975.0,13.36753625,,,20000.0,,STAZIONE CENTRALE - BALSAMO,0,1975,1
38.110213905,1,1974.0,13.367396835,,,20000.0,,STAZIONE CENTRALE - BALSAMO,0,1974,1
38.1097432167,1,1973.0,13.3663878417,,,20000.0,,STAZIONE CENTRALE - ARDIZZONE 3,0,1973,1
38.109870015,1,1972.0,13.366266695,,,20000.0,,STAZIONE CENTRALE - ARDIZZONE 2,0,1972,1
38.11003281,1,1971.0,13.366125008,,,20000.0,,STAZIONE CENTRALE - ARDIZZONE 1,0,1971,1
38.15337,1,1970.0,13.340116665,,,60000.0,,STADIO,0,1970,1
38.082012895,1,809.0,13.375200035,Europe/Rome,,,,FALSOMIELE - S. M. DI GESU',0,809,1
38.07834979,1,808.0,13.36941786,Europe/Rome,,,,FALSOMIELE - PECORARO,0,808,1
38.1173980767,1,803.0,13.2911510367,Europe/Rome,,,,FALCONARA 2,0,803,1
38.1175174233,1,802.0,13.2898369933,Europe/Rome,,,,FALCONARA 3,0,802,1
38.11663278,1,801.0,13.288845,Europe/Rome,,,,FALCONARA 4,0,801,1
38.1159362767,1,800.0,13.2898656967,Europe/Rome,,,,FALCONARA 5,0,800,1
38.078996395,1,807.0,13.371719195,Europe/Rome,,,,FALSOMIELE - LUCCHICELLI,0,807,1
38.0781182,1,806.0,13.3684621875,Europe/Rome,,,,FALSOMIELE - BELL'AMORE,0,806,1
38.08005522,1,805.0,13.37283231,Europe/Rome,,,,FALSOMIELE - BARRESI,0,805,1
38.07498833,1,804.0,13.35425833,Europe/Rome,,,,FALSOMIELE - ALOI,0,804,1
38.1621005725,1,1775.0,13.3705728825,Europe/Rome,,,,ROTOLI 2,0,1775,1
38.1587462525,1,1774.0,13.37118375,Europe/Rome,,,,ROTOLI 1,0,1774,1
38.1634229875,1,1777.0,13.3698580775,Europe/Rome,,,,ROTOLI 3,0,1777,1
38.16387,1,1776.0,13.369732085,Europe/Rome,,,,ROTOLI 3,0,1776,1
38.1175586475,1,1771.0,13.363061025,Europe/Rome,,,,ROMA - VUCCIRIA,0,1771,1
38.123492328,1,1770.0,13.359807154,Europe/Rome,,,,ROMA - STABILE,0,1770,1
38.170395,1,1773.0,13.320525,Europe/Rome,,,,ROSARIO DA PARTANNA,0,1773,1
38.1169959817,1,1772.0,13.363452555,Europe/Rome,,,,ROMA - VUCCIRIA,0,1772,1
38.1591392475,1,1779.0,13.371347025,Europe/Rome,,,,ROTOLI 1,0,1779,1
38.161620055,1,1778.0,13.370701865,Europe/Rome,,,,ROTOLI 2,0,1778,1
38.10090389,1,1159.0,13.4000955533,Europe/Rome,,,,MESSINA MARINE - RAVENNA,0,1159,1
38.0995494433,1,1158.0,13.4044333333,Europe/Rome,,,,MESSINA MARINE - PIAZZETTA SPERONE,0,1158,1
38.09691819,1,1155.0,13.421411145,Europe/Rome,,,,MESSINA MARINE - LI GOTTI,0,1155,1
38.097928955,1,1154.0,13.4129723375,Europe/Rome,,,,MESSINA MARINE - LAUDICINA,0,1154,1
38.1012533333,1,1157.0,13.3994105567,Europe/Rome,,,,MESSINA MARINE - PALUMBO,0,1157,1
38.1015933333,1,1156.0,13.3982744467,Europe/Rome,,,,MESSINA MARINE - PALUMBO,0,1156,1
38.1093266775,1,1151.0,13.3798719117,Europe/Rome,,,,MESSINA MARINE - FIUME ORETO,0,1151,1
38.1031913575,1,1150.0,13.3937797625,Europe/Rome,,,,MESSINA MARINE - DIAZ,0,1150,1
38.097762315,1,1153.0,13.4145149375,Europe/Rome,,,,MESSINA MARINE - LAUDICINA,0,1153,1
38.0978675,1,1152.0,13.4128879175,Europe/Rome,,,,MESSINA MARINE - LAUDICINA,0,1152,1
38.0656616,1,59.0,13.32532704,Europe/Rome,,,,ALTOFONTE - CALVARUSO,0,59,1
38.06583167,1,58.0,13.325275,Europe/Rome,,,,ALTOFONTE - CALVARUSO,0,58,1
38.11048167,1,1551.0,13.33464833,Europe/Rome,,,,PITRE' - CAMARDA,0,1551,1
38.11040044,1,1550.0,13.33632141,Europe/Rome,,,,PITRE' - CAMARDA,0,1550,1
38.11050333,1,1553.0,13.33274333,Europe/Rome,,,,PITRE' - GENERALE SALEMI,0,1553,1
38.11042608,1,1552.0,13.33412557,Europe/Rome,,,,PITRE' - GENERALE SALEMI,0,1552,1
38.11055,1,1555.0,13.324355,Europe/Rome,,,,PITRE' - MADONNA DEL SOCCORSO,0,1555,1
38.11053537,1,1554.0,13.325434355,Europe/Rome,,,,PITRE' - MADONNA DEL SOCCORSO,0,1554,1
38.110515,1,1557.0,13.33142667,Europe/Rome,,,,PITRE' - PALCHETTO,0,1557,1
38.1104706,1,1556.0,13.331531145,Europe/Rome,,,,PITRE' - PALCHETTO,0,1556,1
38.11057167,1,1559.0,13.33946333,Europe/Rome,,,,PITRE' - PINDEMONTE,0,1559,1
38.1092575025,1,1558.0,13.309867085,Europe/Rome,,,,PITRE' - PIAZZA MICCA,0,1558,1
38.0880505533,1,57.0,13.32928011,Europe/Rome,,,,ALTOFONTE - BELL'ARIA,0,57,1
38.08412727,1,56.0,13.35290954,Europe/Rome,,,,ALOI 3,0,56,1
38.08118,1,51.0,13.35383624,Europe/Rome,,,,ALOI - GRAFFEO,0,51,1
38.074995835,1,50.0,13.35559667,Europe/Rome,,,,ALOI - FALSOMIELE,0,50,1
38.08274021,1,53.0,13.35334271,Europe/Rome,,,,ALOI - VITALE,0,53,1
38.0849728,1,52.0,13.35263863,Europe/Rome,,,,ALOI - MONETA,0,52,1
38.182657535,1,537.0,13.36462156,Europe/Rome,,,,CRISTOFORO COLOMBO - MARCANTONIO COLONNA,0,537,1
38.189758675,1,536.0,13.359016855,Europe/Rome,,,,CRISTOFORO COLOMBO - MAGELLANO,0,536,1
38.18976197,1,535.0,13.358906955,Europe/Rome,,,,CRISTOFORO COLOMBO - MAGELLANO,0,535,1
38.188676555,1,534.0,13.35098785,Europe/Rome,,,,CRISTOFORO COLOMBO - LORENZO MARQUES,0,534,1
38.18859781,1,533.0,13.351315395,Europe/Rome,,,,CRISTOFORO COLOMBO - LORENZO MARQUES,0,533,1
38.18666822,1,532.0,13.360874355,Europe/Rome,,,,CRISTOFORO COLOMBO - DE VEGA,0,532,1
38.186645545,1,531.0,13.360790525,Europe/Rome,,,,CRISTOFORO COLOMBO - DE VEGA,0,531,1
38.19115389,1,530.0,13.344085,Europe/Rome,,,,CRISTOFORO COLOMBO - CARONIA ROBERTI,0,530,1
38.1888118267,1,539.0,13.3487055367,Europe/Rome,,,,CRISTOFORO COLOMBO - PIETRO DE GUEVARA,0,539,1
38.1826375,1,538.0,13.364711665,Europe/Rome,,,,CRISTOFORO COLOMBO - MARCANTONIO COLONNA,0,538,1
38.08404599,1,429.0,13.39510337,Europe/Rome,,,,CIACULLI - CARRUBELLA,0,429,1
38.07874884,1,428.0,13.4013623,Europe/Rome,,,,CIACULLI - BOZZO,0,428,1
38.1960207375,1,1399.0,13.30822287,Europe/Rome,,,,PARTANNA MONDELLO - IANDOLINO,0,1399,1
38.19608554,1,1398.0,13.3082717,Europe/Rome,,,,PARTANNA MONDELLO - DIONISO,0,1398,1
38.19534,1,1397.0,13.306489165,Europe/Rome,,,,PARTANNA MONDELLO - DIONISO,0,1397,1
38.19459493,1,1396.0,13.30490865,Europe/Rome,,,,PARTANNA MONDELLO - CHIMERA,0,1396,1
38.08749559,1,423.0,13.37017894,Europe/Rome,,,,CHIAVELLI - VITALE,0,423,1
38.09004257,1,422.0,13.36958885,Europe/Rome,,,,CHIAVELLI - VALLONE,0,422,1
38.194518805,1,425.0,13.31556581,Europe/Rome,,,,CHIRONE - CASTELFORTE,0,425,1
38.084713395,1,424.0,13.368401295,Europe/Rome,,,,CHIAVELLI,0,424,1
38.07879667,1,427.0,13.40122667,Europe/Rome,,,,CIACULLI - BOZZO,0,427,1
38.193641345,1,426.0,13.314369545,Europe/Rome,,,,CHIRONE - PORTA DI MARE,0,426,1
38.1193885333,1,2183.0,13.3706367,Europe/Rome,,,,VITTORIO EMANUELE - ISTITUTO NAUTICO,0,2183,1
38.1180523667,1,2182.0,13.36721809,Europe/Rome,,,,VITTORIO EMANUELE - FONTANA DEL GARRAFFO,0,2182,1
38.08037,1,2181.0,13.43633833,Europe/Rome,,,,VITTORIO EMANUELE - EUROPA,0,2181,1
38.07639,1,2180.0,13.44668167,Europe/Rome,,,,VITTORIO EMANUELE - DE GASPERI,0,2180,1
38.11608676,1,2187.0,13.36248368,Europe/Rome,,,,VITTORIO EMANUELE - QUATTRO CANTI,0,2187,1
38.16002601,1,229.0,13.34979951,Europe/Rome,,,,BONANNO 5,0,229,1
38.16000071,1,228.0,13.34985048,Europe/Rome,,,,BONANNO 4,0,228,1
38.15481768,1,227.0,13.36643994,Europe/Rome,,,,BONANNO 3,0,227,1
38.15042421,1,226.0,13.36671889,Europe/Rome,,,,BONANNO 2,0,226,1
38.149124885,1,225.0,13.35990876,Europe/Rome,,,,BONANNO 1,0,225,1
38.1162225167,1,2188.0,13.36270675,Europe/Rome,,,,VITTORIO EMANUELE - QUATTRO CANTI,0,2188,1
38.15420167,1,223.0,13.36142,Europe/Rome,,,,BONANNO - MEZZ'ARANCIO,0,223,1
38.15427141,1,222.0,13.36090118,Europe/Rome,,,,BONANNO - MEZZ'ARANCIO,0,222,1
38.14921732,1,221.0,13.36003318,Europe/Rome,,,,BONANNO - FORESTALE,0,221,1
38.149823065,1,220.0,13.362550735,Europe/Rome,,,,BONANNO - FORESTALE,0,220,1
38.162825,1,2213.0,13.30930833,Europe/Rome,,,,ZONA INDUSTRIALE - TRANCHINA,0,2213,1
38.1559,1,2212.0,13.31789667,Europe/Rome,,,,ZONA INDUSTRIALE - TRABUCCO,0,2212,1
38.15192333,1,2211.0,13.32281667,Europe/Rome,,,,ZONA INDUSTRIALE - NENNI,0,2211,1
38.16051,1,2210.0,13.31217833,Europe/Rome,,,,ZONA INDUSTRIALE - MACCIONELLO,0,2210,1
38.116495,1,2217.0,13.370525,Europe/Rome,,,,ALLORO - ABATELLIS,0,2217,1
38.08515739,1,2216.0,13.2945786,Europe/Rome,,,,FONTANA DEL DRAGO - PALERMO,0,2216,1
38.1318062,1,2215.0,13.34473587,Europe/Rome,,,,NUNZIO MORELLO,0,2215,1
38.13561667,1,2214.0,13.30609333,Europe/Rome,,,,ZUMBO,0,2214,1
38.11361667,1,2219.0,13.366875,Europe/Rome,,,,GARIBALDI,0,2219,1
38.11522333,1,2218.0,13.36739833,Europe/Rome,,,,ALLORO - COCCHIERI,0,2218,1
38.08606333,1,151.0,13.33319333,Europe/Rome,,,,BACHELET 1,0,151,1
38.1418108833,1,150.0,13.35378597,Europe/Rome,,,,AUTONOMIA SICILIANA - FERRI,0,150,1
38.139338335,1,153.0,13.31668167,Europe/Rome,,,,BADIA,0,153,1
38.087495,1,152.0,13.335085,Europe/Rome,,,,BACHELET 2,0,152,1
38.10882394,1,155.0,13.30611572,Europe/Rome,,,,BARACCA - PIAZZA BARONE TURRISI,0,155,1
38.10922493,1,154.0,13.30252156,Europe/Rome,,,,BARACCA - CANGIAMILA,0,154,1
38.11304898,1,157.0,13.29715043,Europe/Rome,,,,BARACCA 1,0,157,1
38.1090582,1,156.0,13.30457747,Europe/Rome,,,,BARACCA - TORRE DELLE PALME,0,156,1
38.11060093,1,159.0,13.2992439,Europe/Rome,,,,BARACCA 3,0,159,1
38.11181667,1,158.0,13.29817667,Europe/Rome,,,,BARACCA 2,0,158,1
38.1617405567,1,1807.0,13.3245894467,Europe/Rome,,,,S. LORENZO - DEI QUARTIERI,0,1807,1
38.1579166667,1,1806.0,13.33088333,Europe/Rome,,,,S. LORENZO - CORSICA,0,1806,1
38.15833278,1,1805.0,13.3306861133,Europe/Rome,,,,S. LORENZO - CORSICA,0,1805,1
38.1649704633,1,1804.0,13.318175075,Europe/Rome,,,,S. LORENZO - COMMISSARIATO P.S.,0,1804,1
38.1679816,1,1803.0,13.313765325,Europe/Rome,,,,S. LORENZO - CLINICA STAGNO,0,1803,1
38.1692713575,1,1802.0,13.3104912275,Europe/Rome,,,,S. LORENZO - CLINICA STAGNO,0,1802,1
38.1685054175,1,1801.0,13.31309458,Europe/Rome,,,,S. LORENZO - CLINICA STAGNO,0,1801,1
38.162841682,1,1800.0,13.323204278,Europe/Rome,,,,S. LORENZO - ASTORINO,0,1800,1
38.1594452867,1,1809.0,13.33007366,Europe/Rome,,,,S. LORENZO - INGEGNEROS,0,1809,1
38.1596405867,1,1808.0,13.3299870433,Europe/Rome,,,,S. LORENZO - INGEGNEROS,0,1808,1
38.06707,1,1524.0,13.4166925,Europe/Rome,,,,PIAZZETTA GIARDINA,0,1524,1
38.191543626,1,1948.0,13.284415728,Europe/Rome,,,,SFERRACAVALLO - PIAZZA TOMMASO NATALE,0,1948,1
38.14148248,1,1949.0,13.36696565,Europe/Rome,,,,SIMONE GULI' - CALCEDONIO,0,1949,1
38.099044425,1,1525.0,13.404433425,Europe/Rome,,,,PIAZZETTA SPERONE,0,1525,1
38.1957525325,1,1942.0,13.279896425,Europe/Rome,,,,SFERRACAVALLO - DELL'ARANCIO,0,1942,1
38.1960420475,1,1943.0,13.2792720075,Europe/Rome,,,,SFERRACAVALLO - DELL'ARANCIO,0,1943,1
38.19380566,1,1940.0,13.282434778,Europe/Rome,,,,SFERRACAVALLO - DELEGAZIONE,0,1940,1
38.193444022,1,1941.0,13.282750494,Europe/Rome,,,,SFERRACAVALLO - DELEGAZIONE,0,1941,1
38.194428382,1,1946.0,13.281770172,Europe/Rome,,,,SFERRACAVALLO - NICOLETTI,0,1946,1
38.191133602,1,1947.0,13.284790292,Europe/Rome,,,,SFERRACAVALLO - PASSAGGIO A LIVELLO,0,1947,1
38.1971498625,1,1944.0,13.27774294,Europe/Rome,,,,SFERRACAVALLO - MANDERINO,0,1944,1
38.1972107,1,1945.0,13.277611815,Europe/Rome,,,,SFERRACAVALLO - MANDERINO,0,1945,1
38.15055709,1,818.0,13.341932595,Europe/Rome,,,,FANTE - INAIL,0,818,1
38.1489446067,1,819.0,13.3429858367,Europe/Rome,,,,FANTE - PISCINA COMUNALE,0,819,1
38.105211255,1,1527.0,13.382293805,Europe/Rome,,,,PICCIOTTI - CAPPELLO,0,1527,1
38.0811705,1,810.0,13.374175425,Europe/Rome,,,,FALSOMIELE - VILLA ALBANESE,0,810,1
38.07868022,1,811.0,13.370648995,Europe/Rome,,,,FALSOMIELE - VILLA LEONE,0,811,1
38.07564167,1,812.0,13.34978833,Europe/Rome,,,,FALSOMIELE 1,0,812,1
38.07581085,1,813.0,13.351551,Europe/Rome,,,,FALSOMIELE 2,0,813,1
38.07538667,1,814.0,13.35313833,Europe/Rome,,,,FALSOMIELE 3,0,814,1
38.10885,1,815.0,13.30674833,Europe/Rome,,,,FANARA,0,815,1
38.151574935,1,816.0,13.34131585,Europe/Rome,,,,FANTE - C.T.O.,0,816,1
38.1502962667,1,817.0,13.3422533133,Europe/Rome,,,,FANTE - INAIL,0,817,1
38.05078211,1,691.0,13.308831155,Europe/Rome,,,,DEL FANTE - PIANO MAGLIO,0,691,1
38.13150849,1,1522.0,13.33093755,,,50000.0,,PIAZZALE JOHN LENNON 548,0,1522,1
38.1091445517,1,1622.0,13.3537504083,Europe/Rome,,,,RE RUGGERO,0,1622,1
38.08608854,1,1358.0,13.36150602,Europe/Rome,,,,PAPA GIOVANNI XXIII - ERMELLINO,0,1358,1
38.1319004158,1,1523.0,13.3306741658,,,50000.0,,PIAZZALE JOHN LENNON MONTE,0,1523,1
38.14578667,1,1621.0,13.36795333,Europe/Rome,,,,RAMPOLLA - MONTINI,0,1621,1
38.121674515,1,1490.0,13.333619755,Europe/Rome,,,,PIAZZA NOCE,0,1490,1
38.09048497,1,1491.0,13.331446825,Europe/Rome,,,,PIAZZA PAGLIARELLI,0,1491,1
38.1524296933,1,1492.0,13.3378302725,Europe/Rome,,,,PIAZZA PAPA GIOVANNI PAOLO II,0,1492,1
38.15234379,1,1992.0,13.3307302829,Europe/Rome,,,,STRASBURGO - BELGIO,0,1992,1
38.1147073367,1,1494.0,13.3620438,Europe/Rome,,,,PIAZZA PRETORIA,0,1494,1
38.1296174433,1,1495.0,13.2990113133,Europe/Rome,,,,PIAZZA S. CRISTINA,0,1495,1
38.12933907,1,1496.0,13.29838872,Europe/Rome,,,,PIAZZA S. CRISTINA - TINDARI,0,1496,1
38.1612483367,1,1497.0,13.3256788867,Europe/Rome,,,,PIAZZA S. LORENZO,0,1497,1
38.129173415,1,1498.0,13.29312846,Europe/Rome,,,,PIAZZA S. PAOLO,0,1498,1
38.1212659275,1,1499.0,13.3531703225,Europe/Rome,,,,PIAZZA SAN FRANCESCO DI PAOLA,0,1499,1
38.19446493,1,1395.0,13.30475261,Europe/Rome,,,,PARTANNA MONDELLO - CHIMERA,0,1395,1
38.1505799612,1,1994.0,13.332022125,Europe/Rome,,,,STRASBURGO - BRIUCCIA,0,1994,1
38.09984667,1,1700.0,13.3316766667,Europe/Rome,,,,REGIONE SICILIANA - VILLA TASCA,0,1700,1
38.086485,1,1701.0,13.34986833,Europe/Rome,,,,REGIONE SICILIANA - VILLAGRAZIA,0,1701,1
38.0870133333,1,1702.0,13.3495961133,Europe/Rome,,,,REGIONE SICILIANA - VILLAGRAZIA,0,1702,1
38.1115683325,1,1703.0,13.3299783325,Europe/Rome,,,,REGIONE SICILIANA,0,1703,1
38.1529119083,1,1704.0,13.3207968417,Europe/Rome,,,,REGIONE SICILIANA,0,1704,1
38.14853797,1,1705.0,13.33337769,Europe/Rome,,,,RESTIVO - DELLE MADONIE,0,1705,1
38.14831951,1,1706.0,13.33337689,Europe/Rome,,,,RESTIVO - DELLE MADONIE,0,1706,1
38.14487731,1,1707.0,13.33562657,Europe/Rome,,,,RESTIVO - EMILIA,0,1707,1
38.144994165,1,1708.0,13.3354725,Europe/Rome,,,,RESTIVO - EMILIA,0,1708,1
38.14287993,1,1709.0,13.3368558,Europe/Rome,,,,RESTIVO - LAZIO,0,1709,1
38.2036043892,1,1624.0,13.3255116615,Europe/Rome,,,,REGINA ELENA - CIRCE,0,1624,1
38.100915,1,1392.0,13.3602175,Europe/Rome,,,,PARLAVECCHIO - TRICOMI,0,1392,1
38.10178667,1,1391.0,13.361420835,Europe/Rome,,,,PARLAVECCHIO - S. ORSOLA,0,1391,1
38.101551665,1,1390.0,13.361166665,Europe/Rome,,,,PARLAVECCHIO - S. ORSOLA,0,1390,1
38.19359667,1,1128.0,13.322185,Europe/Rome,,,,MATTEI - TERSICORE,0,1128,1
38.191475,1,1129.0,13.32248,Europe/Rome,,,,MATTEI,0,1129,1
38.1752024333,1,1120.0,13.3344822433,Europe/Rome,,,,MATER DOLOROSA - CAMARINA,0,1120,1
38.17516917,1,1121.0,13.33435417,Europe/Rome,,,,MATER DOLOROSA - CAMARINA,0,1121,1
38.173754605,1,1122.0,13.330457035,Europe/Rome,,,,MATER DOLOROSA - MERCADANTE,0,1122,1
38.173437168,1,1123.0,13.329719876,Europe/Rome,,,,MATER DOLOROSA - PETROSINO,0,1123,1
38.19373884,1,1124.0,13.3219488,Europe/Rome,,,,MATTEI - AFRODITE,0,1124,1
38.19217257,1,1125.0,13.32250133,Europe/Rome,,,,MATTEI - CALLIOPE,0,1125,1
38.19537254,1,1126.0,13.32106903,Europe/Rome,,,,MATTEI - COLLOTTI,0,1126,1
38.19489167,1,1127.0,13.32152,Europe/Rome,,,,MATTEI - GIUGNONE,0,1127,1
38.18974163,1,524.0,13.35466069,Europe/Rome,,,,CRISTOFORO COLOMBO - ABATE PALMERIO,0,524,1
38.169254165,1,525.0,13.366776665,Europe/Rome,,,,CRISTOFORO COLOMBO - BELVEDERE MARE,0,525,1
38.1685121975,1,526.0,13.3664229475,Europe/Rome,,,,CRISTOFORO COLOMBO - BELVEDERE,0,526,1
38.1682512475,1,527.0,13.366444165,Europe/Rome,,,,CRISTOFORO COLOMBO - BELVEDERE,0,527,1
38.11436889,1,1018.0,13.3323499967,Europe/Rome,,,,LIBERO GRASSI,0,1018,1
38.11456419,1,1019.0,13.33233431,Europe/Rome,,,,LIBERO GRASSI - DEGLI EMIRI,0,1019,1
38.129769335,1,522.0,13.3606758,Europe/Rome,,,,CRISPI - SCINA',0,522,1
38.18938,1,523.0,13.35428667,Europe/Rome,,,,CRISTOFORO COLOMBO - ABATE PALMERIO,0,523,1
38.09486502,1,1014.0,13.42128977,Europe/Rome,,,,LI GOTTI - ANTIOCHIA,0,1014,1
38.09528201,1,1015.0,13.404820995,Europe/Rome,,,,LI PUMA 1,0,1015,1
38.094651325,1,1016.0,13.406534325,Europe/Rome,,,,LI PUMA 2,0,1016,1
38.094288335,1,1017.0,13.4088275,Europe/Rome,,,,LI PUMA 3,0,1017,1
38.086125,1,1010.0,13.366123335,Europe/Rome,,,,LEVRIERE - ERMELLINO,0,1010,1
38.082723335,1,1011.0,13.36457583,Europe/Rome,,,,LEVRIERE - MUSACCHIA,0,1011,1
38.0809675,1,1012.0,13.3612725,Europe/Rome,,,,LEVRIERE - RUMORE,0,1012,1
38.081815,1,1013.0,13.363365,Europe/Rome,,,,LEVRIERE - SEGUGIO,0,1013,1
38.1464125,1,1234.0,13.331486665,Europe/Rome,,,,NEBRODI - DELLE MADONIE,0,1234,1
38.153375,1,1235.0,13.32707,Europe/Rome,,,,NEBRODI - NORVEGIA,0,1235,1
38.15188833,1,1236.0,13.32791,Europe/Rome,,,,NEBRODI - OLANDA,0,1236,1
38.14595389,1,1237.0,13.3317416667,Europe/Rome,,,,NEBRODI - SARDEGNA,0,1237,1
38.10377667,1,1230.0,13.32027667,Europe/Rome,,,,NAVE - BASILE,0,1230,1
38.14961389,1,1231.0,13.32946389,Europe/Rome,,,,NEBRODI - BELGIO,0,1231,1
38.15098667,1,1232.0,13.328535,Europe/Rome,,,,NEBRODI - BELGIO,0,1232,1
38.14972083,1,1233.0,13.329315,Europe/Rome,,,,NEBRODI - DE GASPERI,0,1233,1
38.152340835,1,1238.0,13.322683335,Europe/Rome,,,,NENNI - ACC. A29 VALLE,0,1238,1
38.154780835,1,1239.0,13.320375,Europe/Rome,,,,NENNI - CROCE ROSSA ITALIANA,0,1239,1
38.07692462,1,438.0,13.40454206,Europe/Rome,,,,CIACULLI - GIBILROSSA,0,438,1
38.07698163,1,439.0,13.40451658,Europe/Rome,,,,CIACULLI - GIBILROSSA,0,439,1
38.08732459,1,436.0,13.39019358,Europe/Rome,,,,CIACULLI - GIARDINO DELLA MEMORIA,0,436,1
38.08735309,1,437.0,13.39026064,Europe/Rome,,,,CIACULLI - GIARDINO DELLA MEMORIA,0,437,1
38.07773011,1,434.0,13.40304136,Europe/Rome,,,,CIACULLI - DI STEFANO,0,434,1
38.07790747,1,435.0,13.40285093,Europe/Rome,,,,CIACULLI - DI STEFANO,0,435,1
38.07962167,1,432.0,13.40024333,Europe/Rome,,,,CIACULLI - CASSARO BONANNO,0,432,1
38.070073895,1,433.0,13.416679055,Europe/Rome,,,,CIACULLI - CROCE VERDE,0,433,1
38.08418533,1,430.0,13.39499474,Europe/Rome,,,,CIACULLI - CARRUBELLA,0,430,1
38.07975594,1,431.0,13.4000212,Europe/Rome,,,,CIACULLI - CASSARO BONANNO,0,431,1
38.10198167,1,1967.0,13.33674333,Europe/Rome,,,,SS. MEDIATRICE - SCHIFANI,0,1967,1
38.096795,1,238.0,13.38235167,Europe/Rome,,,,BRANCACCIO,0,238,1
38.107898875,1,239.0,13.35387917,Europe/Rome,,,,BRASA,0,239,1
38.182355,1,234.0,13.31390333,Europe/Rome,,,,BRAGLIA - MARCIANO,0,234,1
38.180785,1,235.0,13.31507429,Europe/Rome,,,,BRAGLIA - SENOCRATE DI AGRIGENTO,0,235,1
38.09630833,1,236.0,13.382625,Europe/Rome,,,,BRANCACCIO - S. CIRO,0,236,1
38.09587833,1,237.0,13.38297333,Europe/Rome,,,,BRANCACCIO - S. CIRO,0,237,1
38.15491997,1,230.0,13.36642519,Europe/Rome,,,,BONANNO 6,0,230,1
38.1504453,1,231.0,13.36662635,Europe/Rome,,,,BONANNO 7,0,231,1
38.132903,1,232.0,13.335368,Europe/Rome,,,,BORREMANS - RUBENS,0,232,1
38.132855,1,233.0,13.33494,Europe/Rome,,,,BORREMANS - RUBENS,0,233,1
38.11513822,1,2228.0,13.349532275,Europe/Rome,,,,IMERA - D'OSSUNA,0,2228,1
38.13443333,1,2229.0,13.32420667,Europe/Rome,,,,BERNINI - MARCHESANO,0,2229,1
38.11023626,1,2226.0,13.35603683,Europe/Rome,,,,CADORNA,0,2226,1
38.11184833,1,2227.0,13.354705,Europe/Rome,,,,PIAZZA DEL PARLAMENTO,0,2227,1
38.10832621,1,2224.0,13.356956485,Europe/Rome,,,,TUKORY - FILICIUZZA,0,2224,1
38.1084891367,1,2225.0,13.3546730733,Europe/Rome,,,,RE RUGGERO,0,2225,1
38.118140835,1,2222.0,13.368625,Europe/Rome,,,,PIAZZA MARINA,0,2222,1
38.108725415,1,2223.0,13.3584591675,Europe/Rome,,,,TUKORY - ARCOLEO,0,2223,1
38.18295176,1,2220.0,13.30696026,Europe/Rome,,,,FONDO RAFFO,0,2220,1
38.18287688,1,2221.0,13.30695269,Europe/Rome,,,,FONDO RAFFO,0,2221,1
38.1132594467,1,1.0,13.3522677767,Europe/Rome,,,,A. AMEDEO - COLONNA ROTTA,0,1,1
38.15036833,1,146.0,13.33427333,Europe/Rome,,,,AUSONIA - POSTE,0,146,1
38.14256079,1,147.0,13.3558420833,Europe/Rome,,,,AUTONOMIA SICILIANA - D'AMELIO,0,147,1
38.1262767733,1,144.0,13.33939886,Europe/Rome,,,,AURISPA - SERRADIFALCO,0,144,1
38.151445,1,145.0,13.33319,Europe/Rome,,,,AUSONIA - BRIUCCIA,0,145,1
38.1266767167,1,142.0,13.3410889133,Europe/Rome,,,,AURISPA - MERENDA,0,142,1
38.12617167,1,143.0,13.33894667,Europe/Rome,,,,AURISPA - SERRADIFALCO,0,143,1
38.13001578,1,140.0,13.292249365,Europe/Rome,,,,AUGUSTA - PIAZZA S. PAOLO,0,140,1
38.12644667,1,141.0,13.34008167,Europe/Rome,,,,AURISPA - MERENDA,0,141,1
38.1426206233,1,148.0,13.3556576533,Europe/Rome,,,,AUTONOMIA SICILIANA - D'AMELIO,0,148,1
38.1418385733,1,149.0,13.3541124867,Europe/Rome,,,,AUTONOMIA SICILIANA - FERRI,0,149,1
38.099976185,1,2088.0,13.35633374,Europe/Rome,,,,UGHETTI - MADONIA,0,2088,1
38.10161686,1,2089.0,13.35591428,Europe/Rome,,,,UGHETTI - TRICOMI,0,2089,1
38.128685,1,2082.0,13.32676,Europe/Rome,,,,UDITORE - LEONARDO DA VINCI,0,2082,1
38.13333667,1,2083.0,13.32244167,Europe/Rome,,,,UDITORE - PIAZZA ALFONSO DE' LIGUORI,0,2083,1
38.12996333,1,2080.0,13.32561667,Europe/Rome,,,,UDITORE - CIMABUE,0,2080,1
38.1291775,1,2081.0,13.32641,Europe/Rome,,,,UDITORE - LEONARDO DA VINCI,0,2081,1
38.133675825,1,2086.0,13.32219566,Europe/Rome,,,,UDITORE - TIEPOLO,0,2086,1
38.100320835,1,2087.0,13.356184165,Europe/Rome,,,,UGHETTI - MADONIA,0,2087,1
38.132173025,1,2084.0,13.323615005,Europe/Rome,,,,UDITORE - SERIO,0,2084,1
38.13225333,1,2085.0,13.32354667,Europe/Rome,,,,UDITORE - SERIO,0,2085,1
38.08694143,1,1832.0,13.37607443,Europe/Rome,,,,S. M. DI GESU' - TRABIA,0,1832,1
38.086877565,1,1833.0,13.376156245,Europe/Rome,,,,S. M. DI GESU' - TRABIA,0,1833,1
38.089375835,1,1830.0,13.3750125,Europe/Rome,,,,S. M. DI GESU' - REGIONE SICILIANA,0,1830,1
38.08936282,1,1831.0,13.37497741,Europe/Rome,,,,S. M. DI GESU' - REGIONE SICILIANA,0,1831,1
38.09542017,1,1836.0,13.37086022,Europe/Rome,,,,S. M. DI GESU' - VILLA ALHATES,0,1836,1
38.09523653,1,1837.0,13.37100238,Europe/Rome,,,,S. M. DI GESU' - VILLA ALHATES,0,1837,1
38.08580881,1,1834.0,13.37669671,Europe/Rome,,,,S. M. DI GESU' - VERDONE,0,1834,1
38.085776615,1,1835.0,13.37676376,Europe/Rome,,,,S. M. DI GESU' - VERDONE,0,1835,1
38.10698148,1,1838.0,13.30423549,Europe/Rome,,,,S. MARTINO - PERTUSO,0,1838,1
38.10579746,1,1839.0,13.30289036,Europe/Rome,,,,S. MARTINO - S. PIETRO,0,1839,1
38.09704657,1,2154.0,13.36666256,Europe/Rome,,,,VILLAGRAZIA - OS.,0,2154,1
38.09596688,1,2155.0,13.36503983,Europe/Rome,,,,VILLAGRAZIA - OSPEDALE GUADAGNA,0,2155,1
38.09580751,1,2156.0,13.36490169,Europe/Rome,,,,VILLAGRAZIA - OSPEDALE GUADAGNA,0,2156,1
38.176985,1,938.0,13.30958167,Europe/Rome,,,,LANZA DI SCALEA - EINAUDI,0,938,1
38.0981322233,1,2150.0,13.36968675,Europe/Rome,,,,VILLAGRAZIA - GUADAGNA,0,2150,1
38.09204333,1,2151.0,13.3576,Europe/Rome,,,,VILLAGRAZIA - LARGO V.,0,2151,1
38.08463185,1,2152.0,13.33721861,Europe/Rome,,,,VILLAGRAZIA - MARCHESE,0,2152,1
38.08449167,1,2153.0,13.33721167,Europe/Rome,,,,VILLAGRAZIA - MARCHESE,0,2153,1
38.157179165,1,933.0,13.3182075,Europe/Rome,,,,LA MALFA - NUOVA,0,933,1
38.16422417,1,932.0,13.311448335,Europe/Rome,,,,LA MALFA - FIGC,0,932,1
38.164015835,1,931.0,13.312005,Europe/Rome,,,,LA MALFA - FIGC,0,931,1
38.1649575,1,930.0,13.309785,Europe/Rome,,,,LA MALFA - CNR,0,930,1
38.09319667,1,2158.0,13.35941,Europe/Rome,,,,VILLAGRAZIA - S. FILIPPO,0,2158,1
38.08665935,1,2159.0,13.345431275,Europe/Rome,,,,VILLAGRAZIA - SAN FRANCESCO DI SALES,0,2159,1
38.158538335,1,935.0,13.317086665,Europe/Rome,,,,LA MALFA - RIPARTIZIONE ANNONA,0,935,1
38.157169165,1,934.0,13.318184165,Europe/Rome,,,,LA MALFA - NUOVA,0,934,1
38.09917809,1,1955.0,13.393999895,Europe/Rome,,,,SPERONE - ALBRICCI,0,1955,1
38.09912829,1,1954.0,13.393917865,Europe/Rome,,,,SPERONE - ALBRICCI,0,1954,1
38.09933729,1,1957.0,13.396499455,Europe/Rome,,,,SPERONE - BAIAMONTE,0,1957,1
38.099315885,1,1956.0,13.39678935,Europe/Rome,,,,SPERONE - BAIAMONTE,0,1956,1
38.1387316,1,1951.0,13.36773008,Europe/Rome,,,,SIMONE GULI' - CANTIERE NAVALE,0,1951,1
38.14136329,1,1950.0,13.36714402,Europe/Rome,,,,SIMONE GULI' - CALCEDONIO,0,1950,1
38.10117309,1,1953.0,13.34902167,Europe/Rome,,,,SOLARINO,0,1953,1
38.13969252,1,1952.0,13.36778104,Europe/Rome,,,,SIMONE GULI',0,1952,1
38.098948305,1,1959.0,13.40313672,Europe/Rome,,,,SPERONE - MESSINA MARINE,0,1959,1
38.098905,1,1958.0,13.40307194,Europe/Rome,,,,SPERONE - MESSINA MARINE,0,1958,1
38.08906833,1,829.0,13.29990833,Europe/Rome,,,,FONTANA DEL DRAGO 2,0,829,1
38.08734667,1,828.0,13.29758833,Europe/Rome,,,,FONTANA DEL DRAGO 1,0,828,1
38.1185749167,1,825.0,13.34784944,Europe/Rome,,,,FINOCCHIARO APRILE - RE FEDERICO,0,825,1
38.118111255,1,824.0,13.34478594,Europe/Rome,,,,FINOCCHIARO APRILE - AMATO,0,824,1
38.08602833,1,827.0,13.29592667,Europe/Rome,,,,FONTANA DEL DRAGO - CANNOLICCHIO,0,827,1
38.1188300433,1,826.0,13.35015714,Europe/Rome,,,,FINOCCHIARO APRILE - TRIBUNALE,0,826,1
38.0954925,1,821.0,13.3898270825,Europe/Rome,,,,FAVIER,0,821,1
38.148402445,1,820.0,13.34315099,Europe/Rome,,,,FANTE - PISCINA COMUNALE,0,820,1
38.10768167,1,823.0,13.35771833,Europe/Rome,,,,FILICIUZZA,0,823,1
38.10924667,1,822.0,13.37352167,Europe/Rome,,,,FEDELE,0,822,1
38.103095,1,1536.0,13.32634167,Europe/Rome,,,,PIETRATAGLIATA,0,1536,1
38.08156109,1,1483.0,13.30967501,Europe/Rome,,,,PIAZZA MOLARA,0,1483,1
38.0816041233,1,1482.0,13.3097048933,Europe/Rome,,,,PIAZZA MOLARA,0,1482,1
38.10920375,1,1481.0,13.30871103,Europe/Rome,,,,PIAZZA MICCA - PITRE',0,1481,1
38.1093778725,1,1480.0,13.308578125,Europe/Rome,,,,PIAZZA MICCA,0,1480,1
38.1637420267,1,1487.0,13.33242754,Europe/Rome,,,,PIAZZA NISCEMI,0,1487,1
38.129948335,1,1486.0,13.351764165,,,70000.0,,PIAZZA MORDINI,0,1486,1
38.207467915,1,1485.0,13.3268614317,Europe/Rome,,,,PIAZZA MONDELLO,0,1485,1
38.2079400167,1,1484.0,13.326877245,Europe/Rome,,,,PIAZZA MONDELLO,0,1484,1
38.121719685,1,1489.0,13.33375057,Europe/Rome,,,,PIAZZA NOCE,0,1489,1
38.16350233,1,1488.0,13.3324887967,Europe/Rome,,,,PIAZZA NISCEMI,0,1488,1
38.166195092,1,1713.0,13.320599922,Europe/Rome,,,,RESURREZIONE - DE CERVANTES,0,1713,1
38.143533255,1,1712.0,13.33636011,Europe/Rome,,,,RESTIVO - UMBRIA,0,1712,1
38.146417815,1,1711.0,13.33456254,Europe/Rome,,,,RESTIVO - SARDEGNA,0,1711,1
38.146746915,1,1710.0,13.334455385,Europe/Rome,,,,RESTIVO - SARDEGNA,0,1710,1
38.168847496,1,1717.0,13.322567274,Europe/Rome,,,,RESURREZIONE - FLORIO,0,1717,1
38.1705746767,1,1716.0,13.3272428533,Europe/Rome,,,,RESURREZIONE - DUCA DEGLI ABRUZZI,0,1716,1
38.1703504367,1,1715.0,13.3265273667,Europe/Rome,,,,RESURREZIONE - DUCA DEGLI ABRUZZI,0,1715,1
38.1660742975,1,1714.0,13.320482085,Europe/Rome,,,,RESURREZIONE - DE CERVANTES,0,1714,1
38.16997366,1,1719.0,13.3248860433,Europe/Rome,,,,RESURREZIONE - PIAZZA MARIA CONSOLATRICE,0,1719,1
38.1686038225,1,1718.0,13.322066505,Europe/Rome,,,,RESURREZIONE - FLORIO,0,1718,1
38.11598005,1,799.0,13.2897789667,Europe/Rome,,,,FALCONARA 5,0,799,1
38.11664459,1,798.0,13.2887148467,Europe/Rome,,,,FALCONARA 4,0,798,1
38.18888667,1,1270.0,13.30490333,Europe/Rome,,,,OLIMPO,0,1270,1
38.18907333,1,1271.0,13.31236333,Europe/Rome,,,,OLIMPO,0,1271,1
38.078548335,1,1272.0,13.31355,Europe/Rome,,,,OLIO DI LINO - MOLARA,0,1272,1
38.097529375,1,1139.0,13.4171516725,Europe/Rome,,,,MESSINA MARINE - BANDITA,0,1139,1
38.097534195,1,1138.0,13.41646312,Europe/Rome,,,,MESSINA MARINE - BANDITA,0,1138,1
38.1043853725,1,1133.0,13.3907320925,Europe/Rome,,,,MESSINA MARINE - ALAGNA,0,1133,1
38.0968124767,1,1132.0,13.4264931033,Europe/Rome,,,,MESSINA MARINE - ACQUA DEI CORSARI,0,1132,1
38.096717505,1,1131.0,13.4268856175,Europe/Rome,,,,MESSINA MARINE - ACQUA DEI CORSARI,0,1131,1
38.204635,1,1130.0,13.31807333,Europe/Rome,,,,MERCURIO,0,1130,1
38.09682875,1,1137.0,13.425381665,Europe/Rome,,,,MESSINA MARINE - AMMIRAGLIO CRISTODULO,0,1137,1
38.1023672233,1,1136.0,13.3961116633,Europe/Rome,,,,MESSINA MARINE - ALBRICCI,0,1136,1
38.1023772233,1,1135.0,13.39586,Europe/Rome,,,,MESSINA MARINE - ALBRICCI,0,1135,1
38.1043564425,1,1134.0,13.3909649,Europe/Rome,,,,MESSINA MARINE - ALAGNA,0,1134,1
38.12763951,1,519.0,13.36229458,Europe/Rome,,,,CRISPI - PORTO,0,519,1
38.124859105,1,518.0,13.363942805,Europe/Rome,,,,CRISPI - PIAZZA 13 VITTIME,0,518,1
38.16625222,1,926.0,13.3068844433,Europe/Rome,,,,LA MALFA - ACC. A29 VALLE,0,926,1
38.084404165,1,1009.0,13.3655375,Europe/Rome,,,,LEVRIERE - BASSOTTO,0,1009,1
38.0802091675,1,1008.0,13.359017915,Europe/Rome,,,,LEVRIERE - ANTILOPE,0,1008,1
38.14630349,1,1007.0,13.3444517333,Europe/Rome,,,,LEONI - FAVORITA,0,1007,1
38.1460197467,1,1006.0,13.3449822967,Europe/Rome,,,,LEONI - FAVORITA,0,1006,1
38.145294845,1,1005.0,13.3456749,Europe/Rome,,,,LEONI - DON BOSCO,0,1005,1
38.127756665,1,1004.0,13.3263873725,Europe/Rome,,,,LEONARDO DA VINCI - UDITORE,0,1004,1
38.16944001,1,515.0,13.32418579,Europe/Rome,,,,COTTOLENGO - VILLAGGIO RUFFINI,0,515,1
38.12703445,1,1002.0,13.32104173,Europe/Rome,,,,LEONARDO DA VINCI - SILVESTRI,0,1002,1
38.126844945,1,1001.0,13.321114825,Europe/Rome,,,,LEONARDO DA VINCI - SILVESTRI,0,1001,1
38.12696222,1,1000.0,13.31823394,Europe/Rome,,,,LEONARDO DA VINCI - RUGGERI,0,1000,1
38.09048,1,623.0,13.41608667,Europe/Rome,,,,DEI MILLE - CATALANO,0,623,1
38.13043167,1,1226.0,13.29823167,Europe/Rome,,,,MOZIA - GIBILMANNA,0,1226,1
38.13157547,1,1225.0,13.29823941,Europe/Rome,,,,MOZIA - CENTURIPE,0,1225,1
38.17542667,1,1224.0,13.31204167,Europe/Rome,,,,MORMINO,0,1224,1
38.175446665,1,1223.0,13.3119775,Europe/Rome,,,,MORMINO,0,1223,1
38.12524667,1,1222.0,13.33084667,Europe/Rome,,,,MONTUORO,0,1222,1
38.096861075,1,625.0,13.39619107,Europe/Rome,,,,DEI MILLE - CAVALLOTTI,0,625,1
38.09714253,1,624.0,13.395279325,Europe/Rome,,,,DEI MILLE - CAVALLOTTI,0,624,1
38.096323615,1,629.0,13.398556115,Europe/Rome,,,,DEI MILLE - CORSELLI,0,629,1
38.10000049,1,628.0,13.3848189367,Europe/Rome,,,,DEI MILLE - CIRINCIONE,0,628,1
38.10373833,1,1229.0,13.32027167,Europe/Rome,,,,NAVE - BASILE,0,1229,1
38.103275835,1,1228.0,13.3177325,Europe/Rome,,,,NAVE,0,1228,1
38.1176611233,1,2.0,13.3509046317,Europe/Rome,,,,A. AMEDEO - LASCARIS,0,2,1
38.110230835,1,1561.0,13.321425835,Europe/Rome,,,,PITRE' - SAN GABRIELE,0,1561,1
38.18267667,1,11.0,13.290655,Europe/Rome,,,,ACC. A29 MONTE 1,0,11,1
38.17869,1,10.0,13.2932225,Europe/Rome,,,,ACC. A29 MONTE - WELLS,0,10,1
38.176536665,1,13.0,13.2946775,Europe/Rome,,,,ACC. A29 MONTE 3,0,13,1
38.18101,1,12.0,13.29171583,Europe/Rome,,,,ACC. A29 MONTE 2,0,12,1
38.174623335,1,15.0,13.296653335,Europe/Rome,,,,ACC. A29 VALLE - COSTANTINO,0,15,1
38.16615667,1,14.0,13.30447,Europe/Rome,,,,ACC. A29 MONTE 4,0,14,1
38.171014165,1,17.0,13.2999125,Europe/Rome,,,,ACC. A29 VALLE 1,0,17,1
38.167128335,1,16.0,13.30515417,Europe/Rome,,,,ACC. A29 VALLE - POSTE,0,16,1
38.18178748,1,19.0,13.29183099,Europe/Rome,,,,ACC. A29 VALLE 3,0,19,1
38.179959165,1,18.0,13.293045835,Europe/Rome,,,,ACC. A29 VALLE 2,0,18,1
38.159535,1,928.0,13.31629083,Europe/Rome,,,,LA MALFA - AST,0,928,1
38.165406665,1,929.0,13.30886333,Europe/Rome,,,,LA MALFA - CNR,0,929,1
38.17605046,1,201.0,13.30665618,Europe/Rome,,,,BESTA,0,201,1
38.13768833,1,200.0,13.310585,Europe/Rome,,,,BESIO 1,0,200,1
38.17483489,1,203.0,13.30510587,Europe/Rome,,,,BESTA - GABRIELLI,0,203,1
38.17586167,1,202.0,13.30652333,Europe/Rome,,,,BESTA - CELLINO,0,202,1
38.177015,1,205.0,13.30818167,Europe/Rome,,,,BESTA - LANZA DI SCALEA,0,205,1
38.17707414,1,204.0,13.30813542,Europe/Rome,,,,BESTA - LANZA DI SCALEA,0,204,1
38.17355076,1,207.0,13.30326051,Europe/Rome,,,,BESTA - TOMMASO NATALE,0,207,1
38.17363721,1,206.0,13.30327526,Europe/Rome,,,,BESTA - TOMMASO NATALE,0,206,1
38.17983811,1,209.0,13.30983433,Europe/Rome,,,,BIANCHINI,0,209,1
38.17487284,1,208.0,13.30501467,Europe/Rome,,,,BESTA - VILLA CARDILLO,0,208,1
38.05426272,1,685.0,13.3112964,Europe/Rome,,,,DEL FANTE - DEGLI ALPINI,0,685,1
38.1592239,1,684.0,13.3356116333,Europe/Rome,,,,DEL FANTE - CASTELNUOVO,0,684,1
38.05538632,1,687.0,13.31220567,Europe/Rome,,,,DEL FANTE - DEI CORAZZIERI,0,687,1
38.05429229,1,686.0,13.31130177,Europe/Rome,,,,DEL FANTE - DEGLI ALPINI,0,686,1
38.13317333,1,2230.0,13.32524333,Europe/Rome,,,,BERNINI - MINEO,0,2230,1
38.13210582,1,2232.0,13.32676873,Europe/Rome,,,,BERNINI - CIMABUE,0,2232,1
38.1624956,1,680.0,13.32782552,Europe/Rome,,,,DEI QUARTIERI - FLORIO,0,680,1
38.152977704,1,683.0,13.340362306,,,60000.0,,DEL FANTE - CASSARA',0,683,1
38.15663044,1,682.0,13.3379817967,Europe/Rome,,,,DEL FANTE - CASE ROCCA,0,682,1
38.11812418,1,2185.0,13.3675155,Europe/Rome,,,,VITTORIO EMANUELE - PIAZZA MARINA,0,2185,1
38.119384015,1,2184.0,13.37046415,Europe/Rome,,,,VITTORIO EMANUELE - ISTITUTO NAUTICO,0,2184,1
38.08149669,1,2095.0,13.34630594,Europe/Rome,,,,VALENZA,0,2095,1
38.07716833,1,2094.0,13.34691833,Europe/Rome,,,,VALENZA - FALSOMIELE,0,2094,1
38.143324305,1,2097.0,13.31558517,Europe/Rome,,,,VANVITELLI - BADIA,0,2097,1
38.07895469,1,2096.0,13.34685713,Europe/Rome,,,,VALENZA,0,2096,1
38.08869667,1,2091.0,13.35383667,Europe/Rome,,,,USIGNOLO,0,2091,1
38.101675,1,2090.0,13.355853335,Europe/Rome,,,,UGHETTI - TRICOMI,0,2090,1
38.08374409,1,2093.0,13.34555492,Europe/Rome,,,,VALENZA - AGNETTA,0,2093,1
38.088931665,1,2092.0,13.353155,Europe/Rome,,,,USIGNOLO,0,2092,1
38.1414213,1,2099.0,13.31481412,Europe/Rome,,,,VANVITELLI - FICI,0,2099,1
38.14294647,1,2098.0,13.31549138,Europe/Rome,,,,VANVITELLI - BADIA,0,2098,1
38.149915825,1,224.0,13.362624145,Europe/Rome,,,,BONANNO - RAMPOLLA,0,224,1
38.09259157,1,1829.0,13.37276593,Europe/Rome,,,,S. M. DI GESU' - MIRAGLIA,0,1829,1
38.09277628,1,1828.0,13.37252721,Europe/Rome,,,,S. M. DI GESU' - MIRAGLIA,0,1828,1
38.09090491,1,1825.0,13.37388173,Europe/Rome,,,,S. M. DI GESU' - GRAMSCI,0,1825,1
38.084545,1,1824.0,13.37718417,Europe/Rome,,,,S. M. DI GESU' - FALSOMIELE,0,1824,1
38.0976948967,1,1827.0,13.3701264233,Europe/Rome,,,,S. M. DI GESU' - GUADAGNA,0,1827,1
38.09095769,1,1826.0,13.37393537,Europe/Rome,,,,S. M. DI GESU' - GRAMSCI,0,1826,1
38.08465296,1,1821.0,13.37709233,Europe/Rome,,,,S. M. DI GESU' - BRASCA,0,1821,1
38.16397484,1,1820.0,13.320437624,Europe/Rome,,,,S. LORENZO - VILLA ADRIANA,0,1820,1
38.08807279,1,1823.0,13.37559976,Europe/Rome,,,,S. M. DI GESU' - DRAGOTTA,0,1823,1
38.08800858,1,1822.0,13.37557957,Europe/Rome,,,,S. M. DI GESU' - DRAGOTTA,0,1822,1
38.0870227,1,2147.0,13.34222227,Europe/Rome,,,,VILLAGRAZIA - GIRGENTI,0,2147,1
38.09763021,1,2146.0,13.36775959,Europe/Rome,,,,VILLAGRAZIA - GENTILE,0,2146,1
38.09112333,1,2145.0,13.35527167,Europe/Rome,,,,VILLAGRAZIA - FOLAGA,0,2145,1
38.08653293,1,2144.0,13.33886817,Europe/Rome,,,,VILLAGRAZIA - ETNA,0,2144,1
38.08664587,1,2143.0,13.33892047,Europe/Rome,,,,VILLAGRAZIA - ETNA,0,2143,1
38.08972381,1,2142.0,13.35308388,Europe/Rome,,,,VILLAGRAZIA - DELL'USIGNOLO,0,2142,1
38.08958667,1,2141.0,13.352715,Europe/Rome,,,,VILLAGRAZIA - DELL'USIGNOLO,0,2141,1
38.08688833,1,2140.0,13.34355167,Europe/Rome,,,,VILLAGRAZIA - DELLA VISITAZIONE,0,2140,1
38.102694165,1,920.0,13.364955835,Europe/Rome,,,,LA FRANCA - BERGAMO,0,920,1
38.103690835,1,921.0,13.363608335,Europe/Rome,,,,LA FRANCA - DURANTE,0,921,1
38.16072,1,924.0,13.315408335,Europe/Rome,,,,LA MALFA,0,924,1
38.16602167,1,925.0,13.30751167,Europe/Rome,,,,LA MALFA - ACC. A29 VALLE,0,925,1
38.09692,1,2149.0,13.36658667,Europe/Rome,,,,VILLAGRAZIA - GRECA,0,2149,1
38.08698998,1,2148.0,13.34211498,Europe/Rome,,,,VILLAGRAZIA - GIRGENTI,0,2148,1
38.140635555,1,1920.0,13.33825183,Europe/Rome,,,,SCIUTI - DELLE MAGNOLIE,0,1920,1
38.139936665,1,1921.0,13.33857167,Europe/Rome,,,,SCIUTI - DELLE MAGNOLIE,0,1921,1
38.13648209,1,1922.0,13.34080744,Europe/Rome,,,,SCIUTI - GIUSTI,0,1922,1
38.13608,1,1923.0,13.34093,Europe/Rome,,,,SCIUTI - GIUSTI,0,1923,1
38.141545805,1,1924.0,13.337560375,Europe/Rome,,,,SCIUTI - LAZIO,0,1924,1
38.1328199,1,1925.0,13.3429724,Europe/Rome,,,,SCIUTI - NOTARBARTOLO,0,1925,1
38.132842405,1,1926.0,13.34302358,Europe/Rome,,,,SCIUTI - NOTARBARTOLO,0,1926,1
38.13874694,1,1927.0,13.339419395,Europe/Rome,,,,SCIUTI - PRINCIPE DI PATERNO',0,1927,1
38.138261665,1,1928.0,13.3396,Europe/Rome,,,,SCIUTI - PRINCIPE DI PATERNO',0,1928,1
38.134071865,1,1929.0,13.342259155,Europe/Rome,,,,SCIUTI - RAPISARDI,0,1929,1
38.08941,1,832.0,13.30024833,Europe/Rome,,,,FONTANA DEL DRAGO 2,0,832,1
38.08692833,1,833.0,13.29703167,Europe/Rome,,,,FONTANA DEL DRAGO 1,0,833,1
38.09115167,1,830.0,13.30244333,Europe/Rome,,,,FONTANA DEL DRAGO 3,0,830,1
38.09125833,1,831.0,13.30250667,Europe/Rome,,,,FONTANA DEL DRAGO 3,0,831,1
38.1134274817,1,836.0,13.3777874967,Europe/Rome,,,,FORO UMBERTO I - PADRE MESSINA,0,836,1
38.1165845,1,837.0,13.3740658457,Europe/Rome,,,,FORO UMBERTO I - PIAZZA KALSA,0,837,1
38.11555763,1,835.0,13.3760107087,Europe/Rome,,,,FORO UMBERTO I - LINCOLN,0,835,1
38.117861678,1,838.0,13.372731062,Europe/Rome,,,,FORO UMBERTO I - PORTA FELICE,0,838,1
38.1178302067,1,839.0,13.3731083833,Europe/Rome,,,,FORO UMBERTO I - PORTA FELICE,0,839,1
38.1159912433,1,3.0,13.3510761533,Europe/Rome,,,,A. AMEDEO - MERCATO DELLE PULCI,0,3,1
38.1103675,1,1986.0,13.36576,,,20000.0,,STAZIONE CENTRALE - ROMA,0,1986,1
38.12424167,1,24.0,13.33315667,Europe/Rome,,,,ACCARDO,0,24,1
38.105711405,1,1532.0,13.381269455,Europe/Rome,,,,PICCIOTTI - SAETTA,0,1532,1
38.1154738867,1,784.0,13.2927397633,Europe/Rome,,,,FALCONARA - FALCONA,0,784,1
38.11546222,1,785.0,13.290875,Europe/Rome,,,,FALCONARA - FRANCESCO DA PICCIANO,0,785,1
38.1155226733,1,786.0,13.29095503,Europe/Rome,,,,FALCONARA - FRANCESCO DA PICCIANO,0,786,1
38.11731165,1,787.0,13.2926558333,Europe/Rome,,,,FALCONARA - MADONNA DI LOURDES,0,787,1
38.11839656,1,780.0,13.29749385,Europe/Rome,,,,FALCONARA - AI VILLINI A S. ISIDORO,0,780,1
38.1173810367,1,781.0,13.2940667867,Europe/Rome,,,,FALCONARA - ANDREA DA BURGIO,0,781,1
38.1520505533,1,1728.0,13.3364894133,Europe/Rome,,,,RESUTTANA - SACRA FAMIGLIA,0,1728,1
38.1523579167,1,1729.0,13.3359725333,Europe/Rome,,,,RESUTTANA - SACRA FAMIGLIA,0,1729,1
38.1551593767,1,1726.0,13.3323589833,Europe/Rome,,,,RESUTTANA - BARTOLINO,0,1726,1
38.1531264633,1,1727.0,13.33497834,Europe/Rome,,,,RESUTTANA - BRIUCCIA,0,1727,1
38.15598778,1,1724.0,13.331925,Europe/Rome,,,,RESUTTANA - ALDISIO,0,1724,1
38.1560416667,1,1725.0,13.33193667,Europe/Rome,,,,RESUTTANA - BARTOLINO,0,1725,1
38.164915755,1,1722.0,13.31955003,Europe/Rome,,,,RESURREZIONE - VILLA ADRIANA,0,1722,1
38.1513832311,1,1723.0,13.3377286958,Europe/Rome,,,,RESUTTANA,0,1723,1
38.16995076,1,1720.0,13.32447475,Europe/Rome,,,,RESURREZIONE - PIAZZA MARIA CONSOLATRICE,0,1720,1
38.164639618,1,1721.0,13.319305762,Europe/Rome,,,,RESURREZIONE - VILLA ADRIANA,0,1721,1
38.06879667,1,60.0,13.32732333,Europe/Rome,,,,ALTOFONTE - CIRAULO 1 MONTE,0,60,1
38.068895,1,61.0,13.32728833,Europe/Rome,,,,ALTOFONTE - CIRAULO 1 VALLE,0,61,1
38.06718202,1,62.0,13.32637176,Europe/Rome,,,,ALTOFONTE - CIRAULO 2 MONTE,0,62,1
38.06728865,1,63.0,13.32637981,Europe/Rome,,,,ALTOFONTE - CIRAULO 2 VALLE,0,63,1
38.07092833,1,64.0,13.32770667,Europe/Rome,,,,ALTOFONTE - MOLLO,0,64,1
38.07105155,1,65.0,13.32767665,Europe/Rome,,,,ALTOFONTE - MOLLO,0,65,1
38.07220234,1,66.0,13.32838744,Europe/Rome,,,,ALTOFONTE - MONTAGNA,0,66,1
38.07226041,1,67.0,13.32832307,Europe/Rome,,,,ALTOFONTE - MONTAGNA,0,67,1
38.06478945,1,68.0,13.32472757,Europe/Rome,,,,ALTOFONTE - MUSSO,0,68,1
38.06467167,1,69.0,13.32471667,Europe/Rome,,,,ALTOFONTE - MUSSO,0,69,1
38.132005,1,407.0,13.29805167,Europe/Rome,,,,CENTURIPE - MOZIA,0,407,1
38.1054515617,1,1588.0,13.374293235,Europe/Rome,,,,PONTE AMMIRAGLIO,0,1588,1
38.104181075,1,1589.0,13.3767294375,Europe/Rome,,,,PONTE AMMIRAGLIO - BUONRIPOSO,0,1589,1
38.1321092133,1,406.0,13.2977561167,Europe/Rome,,,,CENTURIPE - MOZIA,0,406,1
38.12550029,1,1582.0,13.35649431,,,80000.0,,POLITEAMA - TURATI,0,1582,1
38.1035705533,1,1583.0,13.3297105567,Europe/Rome,,,,POLLACI,0,1583,1
38.12465,1,1580.0,13.35558333,Europe/Rome,,,,POLITEAMA,0,1580,1
38.1250126821,1,1581.0,13.3574378421,,,80000.0,,POLITEAMA - AMARI,0,1581,1
38.082577964,1,1586.0,13.43422099,Europe/Rome,,,,POMARA - FIGURELLA,0,1586,1
38.08356923,1,1587.0,13.4339190233,Europe/Rome,,,,POMARA - NOVELLI,0,1587,1
38.0850397667,1,1584.0,13.43354379,Europe/Rome,,,,POMARA - BELVEDERE,0,1584,1
38.0855149967,1,1585.0,13.43346722,Europe/Rome,,,,POMARA - BELVEDERE,0,1585,1
38.139807735,1,1038.0,13.3458785625,Europe/Rome,,,,LIBERTA' - UGDULENA,0,1038,1
38.1402691675,1,1039.0,13.3455341675,Europe/Rome,,,,LIBERTA' - UGDULENA,0,1039,1
38.13852486,1,508.0,13.30564767,Europe/Rome,,,,COSENZ 1,0,508,1
38.14043833,1,509.0,13.305525,Europe/Rome,,,,COSENZ 2,0,509,1
38.141618845,1,1032.0,13.3447111525,Europe/Rome,,,,LIBERTA' - MATTEOTTI,0,1032,1
38.1419554175,1,1033.0,13.3444175,Europe/Rome,,,,LIBERTA' - MATTEOTTI,0,1033,1
38.144367215,1,1030.0,13.3429182525,Europe/Rome,,,,LIBERTA' - LAZIO,0,1030,1
38.14474375,1,1031.0,13.34259083,Europe/Rome,,,,LIBERTA' - LAZIO,0,1031,1
38.1265693587,1,1036.0,13.3544635888,Europe/Rome,,,,LIBERTA' - QUINTINO SELLA,0,1036,1
38.1266483763,1,1037.0,13.354300045,Europe/Rome,,,,LIBERTA' - QUINTINO SELLA,0,1037,1
38.134283245,1,1034.0,13.3494733125,Europe/Rome,,,,LIBERTA' - NOTARBARTOLO,0,1034,1
38.09447,1,501.0,13.391275,Europe/Rome,,,,CORLEONE - INGHAM,0,501,1
38.15513,1,1212.0,13.32463083,Europe/Rome,,,,MONTECARLO,0,1212,1
38.1410721733,1,1213.0,13.3579856167,Europe/Rome,,,,MONTEPELLEGRINO - AMMIRAGLIO RIZZO,0,1213,1
38.0852371767,1,1210.0,13.3532039033,Europe/Rome,,,,MONETA - ERMELLINO,0,1210,1
38.153930355,1,1211.0,13.324279005,Europe/Rome,,,,MONTE SAN CALOGERO,0,1211,1
38.13950899,1,1216.0,13.3580334467,Europe/Rome,,,,MONTEPELLEGRINO - LORIA,0,1216,1
38.093180485,1,635.0,13.407730455,Europe/Rome,,,,DEI MILLE - FONDO VITALE,0,635,1
38.1408707133,1,1214.0,13.35778579,Europe/Rome,,,,MONTEPELLEGRINO - AMMIRAGLIO RIZZO,0,1214,1
38.1394449833,1,1215.0,13.35828667,Europe/Rome,,,,MONTEPELLEGRINO - LORIA,0,1215,1
38.1085269443,1,638.0,13.3710248086,Europe/Rome,,,,DEI MILLE - INGRASSIA,0,638,1
38.092355,1,639.0,13.41043667,Europe/Rome,,,,DEI MILLE - LAUDICINA,0,639,1
38.1364790333,1,1218.0,13.35869988,Europe/Rome,,,,MONTEPELLEGRINO - MERCATO,0,1218,1
38.1365861,1,1219.0,13.35846573,Europe/Rome,,,,MONTEPELLEGRINO - MERCATO,0,1219,1
38.11734086,1,782.0,13.2940312367,Europe/Rome,,,,FALCONARA - ANDREA DA BURGIO,0,782,1
38.1154533,1,783.0,13.2926666867,Europe/Rome,,,,FALCONARA - FALCONA,0,783,1
38.17802,1,1106.0,13.3354583325,Europe/Rome,,,,MARGHERITA DI SAVOIA - MATER DOLOROSA,0,1106,1
38.07449015,1,1455.0,13.30263689,Europe/Rome,,,,PIAZZA AQUINO,0,1455,1
38.1956392417,1,1104.0,13.3319609583,Europe/Rome,,,,MARGHERITA DI SAVOIA - MATER DEI,0,1104,1
38.129919605,1,1457.0,13.29478807,Europe/Rome,,,,PIAZZA ARMERINA - ISPICA,0,1457,1
38.1439359775,1,1450.0,13.367216945,Europe/Rome,,,,PIAZZA ACQUASANTA - AMMIRAGLIO RIZZO,0,1450,1
38.183163335,1,1103.0,13.333830835,Europe/Rome,,,,MARGHERITA DI SAVOIA - FONDO CALVELLO,0,1103,1
38.185492085,1,1100.0,13.333478335,Europe/Rome,,,,MARGHERITA DI SAVOIA - DEIANIRA,0,1100,1
38.1959404067,1,1101.0,13.332000825,Europe/Rome,,,,MARGHERITA DI SAVOIA - DELLE PALME,0,1101,1
38.13005194,1,1458.0,13.297604295,Europe/Rome,,,,PIAZZA ARMERINA - MOZIA,0,1458,1
38.12975046,1,1459.0,13.29354554,Europe/Rome,,,,PIAZZA ARMERINA - PIAZZA S. PAOLO,0,1459,1
38.187505565,1,1108.0,13.3331564925,Europe/Rome,,,,MARGHERITA DI SAVOIA - MONTE ERCTA,0,1108,1
38.1930328267,1,1109.0,13.3324447367,Europe/Rome,,,,MARGHERITA DI SAVOIA - PIAZZA CABOTO,0,1109,1
38.1172796467,1,788.0,13.2926327733,Europe/Rome,,,,FALCONARA - MADONNA DI LOURDES,0,788,1
38.1146664,1,789.0,13.2946268267,Europe/Rome,,,,FALCONARA - PIAZZA BAIDA,0,789,1
38.16154414,1,681.0,13.32580082,Europe/Rome,,,,DEI QUARTIERI - S. LORENZO,0,681,1
38.0731483,1,2136.0,13.32900167,Europe/Rome,,,,VILLAGRAZIA - CATENA,0,2136,1
38.08337463,1,2137.0,13.33650783,Europe/Rome,,,,VILLAGRAZIA - CILIO,0,2137,1
38.11206238,1,216.0,13.30819845,Europe/Rome,,,,BOLOGNI,0,216,1
38.11194667,1,217.0,13.30829,Europe/Rome,,,,BOLOGNI,0,217,1
38.05793125,1,214.0,13.31520975,Europe/Rome,,,,BLANDINO,0,214,1
38.0579492,1,215.0,13.3152701,Europe/Rome,,,,BLANDINO,0,215,1
38.06251296,1,212.0,13.32228273,Europe/Rome,,,,BIVIO PIANA,0,212,1
38.12664333,1,213.0,13.34231833,Europe/Rome,,,,BIXIO - AURISPA,0,213,1
38.18100965,1,210.0,13.310544215,Europe/Rome,,,,BIANCHINI - D'ALVISE,0,210,1
38.06296172,1,211.0,13.32257912,Europe/Rome,,,,BIVIO PIANA,0,211,1
38.15621497,1,218.0,13.35741565,Europe/Rome,,,,BONANNO - CASTELLO UTVEGGIO,0,218,1
38.15629833,1,219.0,13.357545,Europe/Rome,,,,BONANNO - CASTELLO UTVEGGIO,0,219,1
38.08328167,1,2138.0,13.33655333,Europe/Rome,,,,VILLAGRAZIA - CILIO,0,2138,1
38.08692559,1,2139.0,13.34360898,Europe/Rome,,,,VILLAGRAZIA - DELLA VISITAZIONE,0,2139,1
38.117765815,1,4.0,13.35115776,Europe/Rome,,,,A. AMEDEO - TRIBUNALE,0,4,1
38.199315,1,1858.0,13.25675167,Europe/Rome,,,,S.S. 113 - MARINA MILITARE,0,1858,1
38.09801833,1,1859.0,13.4055,Europe/Rome,,,,SACCO E VANZETTI - XXVII MAGGIO,0,1859,1
38.09455667,1,1850.0,13.35000667,Europe/Rome,,,,S.R. ARCANGELO - MULINO CARTE,0,1850,1
38.094325,1,1851.0,13.34992667,Europe/Rome,,,,S.R. ARCANGELO - MULINO CARTE,0,1851,1
38.092175,1,1852.0,13.34626,Europe/Rome,,,,S.R. ARCANGELO - PONTE CORLEONE,0,1852,1
38.09229167,1,1853.0,13.3471,Europe/Rome,,,,S.R. ARCANGELO - PONTE CORLEONE,0,1853,1
38.09647833,1,1854.0,13.34974167,Europe/Rome,,,,S.R. ARCANGELO - ROCCELLA,0,1854,1
38.09689,1,1855.0,13.34980167,Europe/Rome,,,,S.R. ARCANGELO - ROCCELLA,0,1855,1
38.20102,1,1856.0,13.26757,Europe/Rome,,,,S.S. 113 - BELVEDERE,0,1856,1
38.199175,1,1857.0,13.25638667,Europe/Rome,,,,S.S. 113 - MARINA MILITARE,0,1857,1
38.09517531,1,2172.0,13.36331517,Europe/Rome,,,,VILLAGRAZIA 8,0,2172,1
38.0755427,1,2173.0,13.33160877,Europe/Rome,,,,VILLAGRAZIA 9,0,2173,1
38.09483019,1,2170.0,13.36244076,Europe/Rome,,,,VILLAGRAZIA 6,0,2170,1
38.09472675,1,2171.0,13.36238578,Europe/Rome,,,,VILLAGRAZIA 7,0,2171,1
38.11482333,1,2176.0,13.35941,Europe/Rome,,,,VITTORIO EMANUELE - BOLOGNI,0,2176,1
38.1480212525,1,918.0,13.3566354175,Europe/Rome,,,,KING - SCALA VECCHIA,0,918,1
38.07575833,1,2174.0,13.44867,Europe/Rome,,,,VITTORIO EMANUELE - AMARI,0,2174,1
38.07791697,1,2175.0,13.44173625,Europe/Rome,,,,VITTORIO EMANUELE - ARENA,0,2175,1
38.09498667,1,915.0,13.39623667,Europe/Rome,,,,INGHAM,0,915,1
38.110074165,1,914.0,13.350419165,Europe/Rome,,,,INDIPENDENZA - PISANI,0,914,1
38.11399,1,2178.0,13.35731667,Europe/Rome,,,,VITTORIO EMANUELE - CATTEDRALE,0,2178,1
38.173319355,1,916.0,13.33721581,Europe/Rome,,,,INGRESSO FAVORITA,0,916,1
38.1113509011,1,911.0,13.3506766578,Europe/Rome,,,,INDIPENDENZA,0,911,1
38.14646583,1,910.0,13.351101665,Europe/Rome,,,,IMPERATORE FEDERICO,0,910,1
38.11027666,1,913.0,13.350309894,Europe/Rome,,,,INDIPENDENZA - PISANI,0,913,1
38.110796632,1,912.0,13.351883795,Europe/Rome,,,,INDIPENDENZA - PALAZZO REALE,0,912,1
38.1248635,1,516.0,13.3636334533,Europe/Rome,,,,CRISPI - CAPITANERIA,0,516,1
38.12645167,1,1933.0,13.338169165,Europe/Rome,,,,SERRADIFALCO - AURISPA,0,1933,1
38.12540667,1,1932.0,13.33857167,Europe/Rome,,,,SERRADIFALCO - AURISPA,0,1932,1
38.18032333,1,1931.0,13.31562167,Europe/Rome,,,,SENOCRATE DI AGRIGENTO,0,1931,1
38.13446667,1,1930.0,13.3419975,Europe/Rome,,,,SCIUTI - RAPISARDI,0,1930,1
38.12406099,1,1937.0,13.33963528,Europe/Rome,,,,SERRADIFALCO - CRISPI,0,1937,1
38.13003833,1,1936.0,13.33803,Europe/Rome,,,,SERRADIFALCO - CAMPOLO,0,1936,1
38.12816333,1,1935.0,13.337785,Europe/Rome,,,,SERRADIFALCO - BERNABEI,0,1935,1
38.12802774,1,1934.0,13.33769068,Europe/Rome,,,,SERRADIFALCO - BERNABEI,0,1934,1
38.12171988,1,1939.0,13.34037423,Europe/Rome,,,,SERRADIFALCO - RAZZA,0,1939,1
38.12657927,1,1938.0,13.33802462,Europe/Rome,,,,SERRADIFALCO - PARISIO,0,1938,1
38.17745156,1,1424.0,13.31418782,Europe/Rome,,,,PATTI - PISANO,0,1424,1
38.200869625,1,847.0,13.3234329417,Europe/Rome,,,,GALATEA - PARCHEGGIO,0,847,1
38.2009116733,1,846.0,13.32338042,Europe/Rome,,,,GALATEA - PARCHEGGIO,0,846,1
38.1999385667,1,845.0,13.3215170633,Europe/Rome,,,,GALATEA - CIANE,0,845,1
38.2001127833,1,844.0,13.3219786367,Europe/Rome,,,,GALATEA - CIANE,0,844,1
38.155753335,1,843.0,13.32495417,Europe/Rome,,,,FRANCIA - NEBRODI,0,843,1
38.15631333,1,842.0,13.325975835,Europe/Rome,,,,FRANCIA - NEBRODI,0,842,1
38.154782225,1,841.0,13.3228192525,Europe/Rome,,,,PARCHEGGIO FRANCIA,0,841,1
38.1136682083,1,840.0,13.3772666117,Europe/Rome,,,,FORO UMBERTO I - VILLA GIULIA,0,840,1
38.133055,1,849.0,13.33383667,Europe/Rome,,,,GALILEI - BORREMANS,0,849,1
38.1987683833,1,848.0,13.31927006,Europe/Rome,,,,GALATEA - SALINE,0,848,1
38.12462145,1,1739.0,13.3115373133,Europe/Rome,,,,ROCCAZZO - DOGALI,0,1739,1
38.1216598067,1,1738.0,13.3077775867,Europe/Rome,,,,ROCCAZZO - DERNA,0,1738,1
38.1539105567,1,1731.0,13.3337444433,Europe/Rome,,,,RESUTTANA - VILLA SOFIA,0,1731,1
38.1541633367,1,1730.0,13.33332667,Europe/Rome,,,,RESUTTANA - VILLA SOFIA,0,1730,1
38.1223342867,1,1733.0,13.3086129867,Europe/Rome,,,,ROCCAZZO - AMAT,0,1733,1
38.143175175,1,1732.0,13.3465941,Europe/Rome,,,,ROCCAFORTE - DON BOSCO,0,1732,1
38.12083238,1,1735.0,13.3066334867,Europe/Rome,,,,ROCCAZZO - CASA DEL SOLE,0,1735,1
38.1223832267,1,1734.0,13.3087286667,Europe/Rome,,,,ROCCAZZO - AMAT,0,1734,1
38.12152943,1,1737.0,13.30754568,Europe/Rome,,,,ROCCAZZO - DERNA,0,1737,1
38.1206145233,1,1736.0,13.30642661,Europe/Rome,,,,ROCCAZZO - CASA DEL SOLE,0,1736,1
38.20307,1,732.0,13.31686167,Europe/Rome,,,,DIOMEDE - MERCURIO,0,732,1
38.087880835,1,753.0,13.345841665,Europe/Rome,,,,EMILY BALCH - VILLAGRAZIA,0,753,1
38.08756333,1,752.0,13.34520833,Europe/Rome,,,,EMILY BALCH - VILLAGRAZIA,0,752,1
38.17806333,1,751.0,13.30928833,Europe/Rome,,,,EINAUDI 2,0,751,1
38.177965265,1,750.0,13.309401895,Europe/Rome,,,,EINAUDI 1,0,750,1
38.12863,1,757.0,13.28983167,Europe/Rome,,,,ERICE - CALTABELLOTTA,0,757,1
38.08882653,1,756.0,13.351062435,Europe/Rome,,,,EMILY BALCH 3,0,756,1
38.088822195,1,755.0,13.34847577,Europe/Rome,,,,EMILY BALCH 2,0,755,1
38.08894167,1,754.0,13.34872667,Europe/Rome,,,,EMILY BALCH 1,0,754,1
38.12656833,1,759.0,13.29080167,Europe/Rome,,,,ERICE - CASTELLANA,0,759,1
38.13038764,1,758.0,13.28957185,Europe/Rome,,,,ERICE - CASTELDACCIA,0,758,1
38.119416675,1,1595.0,13.371088205,Europe/Rome,,,,PORTA FELICE,0,1595,1
38.10075783,1,1597.0,13.39225349,Europe/Rome,,,,PORTELLA DELLA GINESTRA - DIAZ,0,1597,1
38.100548075,1,1596.0,13.39245889,Europe/Rome,,,,PORTELLA DELLA GINESTRA - DIAZ,0,1596,1
38.11148594,1,1591.0,13.378514225,Europe/Rome,,,,PONTE DI MARE - S. ERASMO,0,1591,1
38.1117078767,1,1590.0,13.37840093,Europe/Rome,,,,PONTE DI MARE - S. ERASMO,0,1590,1
38.1031047143,1,1593.0,13.3695761686,Europe/Rome,,,,PONTE ORETO,0,1593,1
38.13153336,1,1592.0,13.34085867,Europe/Rome,,,,PONTE NOTARBARTOLO,0,1592,1
38.10170107,1,1599.0,13.390342075,Europe/Rome,,,,PORTELLA DELLA GINESTRA - FERRARI,0,1599,1
38.10137852,1,1598.0,13.390788565,Europe/Rome,,,,PORTELLA DELLA GINESTRA - FERRARI,0,1598,1
38.130643332,1,1025.0,13.351823664,Europe/Rome,,,,LIBERTA' - CROCI,0,1025,1
38.135706665,1,1024.0,13.34845625,Europe/Rome,,,,LIBERTA' - ARIMONDI,0,1024,1
38.1389904175,1,1027.0,13.3463508325,Europe/Rome,,,,LIBERTA' - D'ANNUNZIO,0,1027,1
38.12954773,1,1026.0,13.35242951,Europe/Rome,,,,LIBERTA' - CROCI,0,1026,1
38.11288167,1,1021.0,13.33314,Europe/Rome,,,,LIBERO GRASSI - SICCHERIA,0,1021,1
38.11260791,1,1020.0,13.33350509,Europe/Rome,,,,LIBERO GRASSI - LA TORRE,0,1020,1
38.1361702475,1,1023.0,13.348257155,Europe/Rome,,,,LIBERTA' - ARIMONDI,0,1023,1
38.1285116412,1,1022.0,13.3532039788,Europe/Rome,,,,LIBERTA' - ARCHIMEDE,0,1022,1
38.09335333,1,502.0,13.39308167,Europe/Rome,,,,CORLEONE - METRO',0,502,1
38.1432520825,1,1029.0,13.3435679525,Europe/Rome,,,,LIBERTA' - DON BOSCO,0,1029,1
38.1431479175,1,1028.0,13.3437229175,Europe/Rome,,,,LIBERTA' - DON BOSCO,0,1028,1
38.08972167,1,503.0,13.40065833,Europe/Rome,,,,CORLEONE - ZABAN,0,503,1
38.17986183,1,500.0,13.31578749,Europe/Rome,,,,COPPI - S. NICOLA,0,500,1
38.1330778917,1,1035.0,13.3501300833,Europe/Rome,,,,LIBERTA' - NOTARBARTOLO,0,1035,1
38.15030871,1,605.0,13.336020018,Europe/Rome,,,,DE GASPERI - AUSONIA,0,605,1
38.1501771417,1,604.0,13.3354841983,Europe/Rome,,,,DE GASPERI - AUSONIA,0,604,1
38.149351952,1,607.0,13.33360444,Europe/Rome,,,,DE GASPERI - STRASBURGO,0,607,1
38.14842167,1,606.0,13.33117,Europe/Rome,,,,DE GASPERI - NEBRODI,0,606,1
38.08531164,1,1209.0,13.35312143,Europe/Rome,,,,MONETA - ALOI,0,1209,1
38.2062073033,1,1208.0,13.3242121817,Europe/Rome,,,,MONDELLO - TOLOMEA,0,1208,1
38.10247833,1,603.0,13.32707667,Europe/Rome,,,,DE FILIPPO,0,603,1
38.10264167,1,602.0,13.327115,Europe/Rome,,,,DE FILIPPO,0,602,1
38.08538,1,1205.0,13.31381,Europe/Rome,,,,MOLARA 1,0,1205,1
38.08711,1,1204.0,13.31558833,Europe/Rome,,,,MOLARA - S. ONOFRIO,0,1204,1
38.08432167,1,1206.0,13.31219,Europe/Rome,,,,MOLARA 2,0,1206,1
38.178812035,1,609.0,13.30958798,Europe/Rome,,,,DE GOBBIS,0,609,1
38.07970833,1,1200.0,13.31223,Europe/Rome,,,,MOLARA - MIMOSA,0,1200,1
38.08089604,1,1203.0,13.31114486,Europe/Rome,,,,MOLARA - PIAZZA MOLARA,0,1203,1
38.08091333,1,1202.0,13.31117667,Europe/Rome,,,,MOLARA - PIAZZA MOLARA,0,1202,1
38.0992646633,1,633.0,13.3886033067,Europe/Rome,,,,DEI MILLE - D'ORFEO,0,633,1
38.093145,1,634.0,13.40770667,Europe/Rome,,,,DEI MILLE - FONDO VITALE,0,634,1
38.13660984,1,1217.0,13.358446285,Europe/Rome,,,,MONTEPELLEGRINO - MERCATO,0,1217,1
38.09780854,1,,13.3454112513,Europe/Rome,,,,PARCHEGGIO BASILE,1,30000,1
38.1090429917,1,637.0,13.3704423617,Europe/Rome,,,,DEI MILLE - INGRASSIA,0,637,1
38.11946,1,1447.0,13.32796667,Europe/Rome,,,,PERPIGNANO - REGIONE SICILIANA,0,1447,1
38.1193318967,1,1446.0,13.3367285667,Europe/Rome,,,,PERPIGNANO - POLITO,0,1446,1
38.10051167,1,1113.0,13.35068,Europe/Rome,,,,MARINI,0,1113,1
38.1919702667,1,1112.0,13.33250153,Europe/Rome,,,,MARGHERITA DI SAVOIA - VENERE,0,1112,1
38.12003,1,1443.0,13.32340167,Europe/Rome,,,,PERPIGNANO - JATO,0,1443,1
38.11972,1,1442.0,13.32591667,Europe/Rome,,,,PERPIGNANO - FIUMEFREDDO,0,1442,1
38.10787848,1,1117.0,13.3637547033,Europe/Rome,,,,MARINUZZI - PISACANE,0,1117,1
38.11906353,1,1440.0,13.3349163333,Europe/Rome,,,,PERPIGNANO - D'AQUINO,0,1440,1
38.1743716875,1,1119.0,13.3321471625,Europe/Rome,,,,MATER DOLOROSA - BARBADORO,0,1119,1
38.174535296,1,1118.0,13.332645804,Europe/Rome,,,,MATER DOLOROSA - BARBADORO,0,1118,1
38.0837367,1,1351.0,13.36132362,Europe/Rome,,,,PANEPINTO - GIRAFFA,0,1351,1
38.19846644,1,1449.0,13.250685855,Europe/Rome,,,,PIANO LEVANTE,0,1449,1
38.1189932433,1,1448.0,13.3321128733,Europe/Rome,,,,PERPIGNANO - RUGGERONE DA PALERMO,0,1448,1
38.08326591,1,1350.0,13.36200625,Europe/Rome,,,,PANEPINTO,0,1350,1
38.08512833,1,1357.0,13.36197333,Europe/Rome,,,,PAPA GIOVANNI XXIII - BASSOTTO,0,1357,1
38.1265228425,1,1356.0,13.2926303475,Europe/Rome,,,,PANTALICA - ZANCLE,0,1356,1
38.126657865,1,1355.0,13.29276502,Europe/Rome,,,,PANTALICA - ZANCLE,0,1355,1
38.09075503,1,489.0,13.39251235,Europe/Rome,,,,CONTE FEDERICO 1,0,489,1
38.09469298,1,488.0,13.384514675,Europe/Rome,,,,CONTE FEDERICO - TORTORICI,0,488,1
38.094585,1,487.0,13.38458167,Europe/Rome,,,,CONTE FEDERICO - TORTORICI,0,487,1
38.09299313,1,486.0,13.387342845,Europe/Rome,,,,CONTE FEDERICO - PIAZZA DEI SIGNORI,0,486,1
38.09287333,1,485.0,13.38778167,Europe/Rome,,,,CONTE FEDERICO - PIAZZA DEI SIGNORI,0,485,1
38.09905742,1,462.0,13.3870898033,Europe/Rome,,,,CIRINCIONE - CARELLA,0,462,1
38.09255569,1,483.0,13.38931784,Europe/Rome,,,,CONTE FEDERICO - GRIGOLI,0,483,1
38.093140415,1,482.0,13.38676907,Europe/Rome,,,,CONTE FEDERICO - GIAFAR,0,482,1
38.09297667,1,481.0,13.38668833,Europe/Rome,,,,CONTE FEDERICO - GIAFAR,0,481,1
38.08847843,1,480.0,13.3961946833,Europe/Rome,,,,CONTE FEDERICO - GALEANO,0,480,1
38.1377566667,1,199.0,13.31049889,Europe/Rome,,,,BESIO 1,0,199,1
38.1367773433,1,198.0,13.31250513,Europe/Rome,,,,BESIO - BARISANO DA TRANI,0,198,1
38.13801667,1,195.0,13.30826,Europe/Rome,,,,BERRETTARO,0,195,1
38.13662333,1,194.0,13.32230167,Europe/Rome,,,,BERNINI 2,0,194,1
38.13675667,1,197.0,13.31248167,Europe/Rome,,,,BESIO - BARISANO DA TRANI,0,197,1
38.1381105567,1,196.0,13.30831778,Europe/Rome,,,,BERRETTARO,0,196,1
38.107095,1,191.0,13.37681,Europe/Rome,,,,BENNICI - PICCIOTTI,0,191,1
38.10689,1,190.0,13.37673833,Europe/Rome,,,,BENNICI - PICCIOTTI,0,190,1
38.1366,1,193.0,13.32239167,Europe/Rome,,,,BERNINI 1,0,193,1
38.07457038,1,1454.0,13.30265433,Europe/Rome,,,,PIAZZA AQUINO,0,1454,1
38.18738868,1,1107.0,13.33333304,Europe/Rome,,,,MARGHERITA DI SAVOIA - MONTE ERCTA,0,1107,1
38.1298542,1,1456.0,13.2959358367,Europe/Rome,,,,PIAZZA ARMERINA - ISPICA,0,1456,1
38.177755172,1,1105.0,13.335705362,Europe/Rome,,,,MARGHERITA DI SAVOIA - MATER DOLOROSA,0,1105,1
38.18404181,1,1102.0,13.333836118,Europe/Rome,,,,MARGHERITA DI SAVOIA - FONDO CALVELLO,0,1102,1
38.14368057,1,1451.0,13.3674292267,Europe/Rome,,,,PIAZZA ACQUASANTA MONTE,0,1451,1
38.14371833,1,1452.0,13.36755667,Europe/Rome,,,,PIAZZA ACQUASANTA VALLE,0,1452,1
38.12264833,1,1453.0,13.35121833,Europe/Rome,,,,PIAZZA AMENDOLA,0,1453,1
38.197160835,1,902.0,13.3142475,Europe/Rome,,,,IANDOLINO - CATALANO,0,902,1
38.19625851,1,903.0,13.311633115,Europe/Rome,,,,IANDOLINO - PARTANNA MONDELLO,0,903,1
38.09274,1,1849.0,13.34922833,Europe/Rome,,,,S.R. ARCANGELO - CALLEA,0,1849,1
38.09295167,1,1848.0,13.34937333,Europe/Rome,,,,S.R. ARCANGELO - CALLEA,0,1848,1
38.14536865,1,906.0,13.347881735,Europe/Rome,,,,IMPERATORE FEDERICO - METRO',0,906,1
38.14553107,1,907.0,13.348127825,Europe/Rome,,,,IMPERATORE FEDERICO - METRO',0,907,1
38.14695503,1,904.0,13.35266675,Europe/Rome,,,,IMPERATORE FEDERICO - FIERA,0,904,1
38.14707,1,905.0,13.352895835,Europe/Rome,,,,IMPERATORE FEDERICO - FIERA,0,905,1
38.10725373,1,1843.0,13.2974495,Europe/Rome,,,,S. MARTINO 3,0,1843,1
38.10531836,1,1842.0,13.30039993,Europe/Rome,,,,S. MARTINO 2,0,1842,1
38.145819535,1,908.0,13.34921412,Europe/Rome,,,,IMPERATORE FEDERICO - MINZONI,0,908,1
38.14633159,1,909.0,13.35078791,Europe/Rome,,,,IMPERATORE FEDERICO,0,909,1
38.092955,1,1847.0,13.30551333,Europe/Rome,,,,S.P. 69 ROCCA - MONREALE,0,1847,1
38.09322667,1,1846.0,13.30562833,Europe/Rome,,,,S.P. 69 ROCCA - MONREALE,0,1846,1
38.1788405533,1,1845.0,13.3139027767,Europe/Rome,,,,S. NICOLA - ZAPPA,0,1845,1
38.10763573,1,1844.0,13.2941021,Europe/Rome,,,,S. MARTINO 4,0,1844,1
38.09531885,1,2169.0,13.36344123,Europe/Rome,,,,VILLAGRAZIA 5,0,2169,1
38.07530411,1,2168.0,13.33122522,Europe/Rome,,,,VILLAGRAZIA 4,0,2168,1
38.081635,1,2165.0,13.33552667,Europe/Rome,,,,VILLAGRAZIA 10,0,2165,1
38.09287667,1,2164.0,13.35876667,Europe/Rome,,,,VILLAGRAZIA 1,0,2164,1
38.08175532,1,2167.0,13.33553821,Europe/Rome,,,,VILLAGRAZIA 3,0,2167,1
38.09093333,1,2166.0,13.354835,Europe/Rome,,,,VILLAGRAZIA 2,0,2166,1
38.07640333,1,2161.0,13.33218833,Europe/Rome,,,,VILLAGRAZIA - VILLA FERNANDEZ,0,2161,1
38.07657,1,2160.0,13.33213667,Europe/Rome,,,,VILLAGRAZIA - VILLA FERNANDEZ,0,2160,1
38.07811833,1,2163.0,13.33339167,Europe/Rome,,,,VILLAGRAZIA - ZUPPETTA,0,2163,1
38.07820306,1,2162.0,13.33338439,Europe/Rome,,,,VILLAGRAZIA - ZUPPETTA,0,2162,1
38.12402725,1,1908.0,13.302842755,Europe/Rome,,,,SARULLO - PAPALEO,0,1908,1
38.124135,1,1909.0,13.30292833,Europe/Rome,,,,SARULLO - PAPALEO,0,1909,1
38.120972105,1,1906.0,13.30564435,Europe/Rome,,,,SARULLO - CASA DEL SOLE,0,1906,1
38.12115167,1,1907.0,13.30564167,Europe/Rome,,,,SARULLO - CASA DEL SOLE,0,1907,1
38.16816942,1,1904.0,13.35103333,Europe/Rome,,,,SANTUARIO,0,1904,1
38.16816468,1,1905.0,13.350945485,Europe/Rome,,,,SANTUARIO,0,1905,1
38.08548,1,1902.0,13.30921833,Europe/Rome,,,,SANTICELLI,0,1902,1
38.139875,1,1903.0,13.328096665,Europe/Rome,,,,SANTUARIO DI CRUILLAS,0,1903,1
38.08681667,1,1900.0,13.311915,Europe/Rome,,,,SANTICELLI - MOLARA,0,1900,1
38.08462667,1,1901.0,13.30622,Europe/Rome,,,,SANTICELLI,0,1901,1
38.134540455,1,854.0,13.33325203,Europe/Rome,,,,GALILEI - MOZART,0,854,1
38.1370333175,1,855.0,13.332288965,Europe/Rome,,,,GALILEI - PRINCIPE DI PATERNO',0,855,1
38.08752,1,856.0,13.43305111,Europe/Rome,,,,GALLETTI - BONADONNA,0,856,1
38.0957980775,1,857.0,13.42896691,Europe/Rome,,,,GALLETTI - MESSINA MARINE,0,857,1
38.130629034,1,850.0,13.334560824,Europe/Rome,,,,GALILEI - GIOTTO,0,850,1
38.1313606933,1,851.0,13.3343049483,Europe/Rome,,,,GALILEI - GIOTTO,0,851,1
38.1356641625,1,852.0,13.3328417525,Europe/Rome,,,,GALILEI - LA ROSA,0,852,1
38.13043333,1,853.0,13.33492833,Europe/Rome,,,,GALILEI - LEONARDO DA VINCI,0,853,1
38.09610566,1,858.0,13.4286957933,Europe/Rome,,,,GALLETTI - MESSINA MARINE,0,858,1
38.08799473,1,859.0,13.43286644,Europe/Rome,,,,GALLETTI - TAGLIAVIA,0,859,1
38.174235,1,6.0,13.29631833,Europe/Rome,,,,ACC. A29 MONTE - COSTANTINO,0,6,1
38.1099629867,1,,13.366490323,Europe/Rome,,,,STAZIONE CENTRALE,1,20000,1
38.1156,1,611.0,13.33431333,Europe/Rome,,,,DEGLI EMIRI - ARCULEO,0,611,1
38.165685835,1,740.0,13.33055333,Europe/Rome,,,,DUCA DEGLI ABRUZZI - PALAZZINA CINESE,0,740,1
38.17132218,1,741.0,13.327607936,Europe/Rome,,,,DUCA DEGLI ABRUZZI - PALLAVICINO,0,741,1
38.171691768,1,742.0,13.32739197,Europe/Rome,,,,DUCA DEGLI ABRUZZI - PALLAVICINO,0,742,1
38.1351130433,1,743.0,13.3554775333,Europe/Rome,,,,DUCA DELLA VERDURA - GIACHERY,0,743,1
38.1342077829,1,744.0,13.3516631443,Europe/Rome,,,,DUCA DELLA VERDURA - LIBERTA',0,744,1
38.13499318,1,745.0,13.3547397,Europe/Rome,,,,DUCA DELLA VERDURA - TOSELLI,0,745,1
38.1347197933,1,746.0,13.35394116,Europe/Rome,,,,DUCA DELLA VERDURA - TOSELLI,0,746,1
38.09204739,1,747.0,13.39848495,Europe/Rome,,,,DUCROT - LANGER,0,747,1
38.09392039,1,748.0,13.39804977,Europe/Rome,,,,DUCROT - UTVEGGIO,0,748,1
38.0939537,1,749.0,13.39805867,Europe/Rome,,,,DUCROT - UTVEGGIO,0,749,1
38.12145305,1,1798.0,13.299770615,Europe/Rome,,,,S. ISIDORO 2,0,1798,1
38.1362122233,1,1050.0,13.3360716667,Europe/Rome,,,,LISZT,0,1050,1
38.082108335,1,1051.0,13.433841665,Europe/Rome,,,,M. MONTAGNE - FIGURELLA,0,1051,1
38.08336833,1,1052.0,13.42817,Europe/Rome,,,,M. MONTAGNE 1,0,1052,1
38.08275667,1,1053.0,13.430815,Europe/Rome,,,,M. MONTAGNE 2,0,1053,1
38.08268,1,1054.0,13.43119667,Europe/Rome,,,,M. MONTAGNE 2,0,1054,1
38.083445,1,1055.0,13.428085,Europe/Rome,,,,M. MONTAGNE 1,0,1055,1
38.09952356,1,1056.0,13.30994591,Europe/Rome,,,,MADDALENA - ALBANESE,0,1056,1
38.09944667,1,1057.0,13.30999833,Europe/Rome,,,,MADDALENA - ALBANESE,0,1057,1
38.09662652,1,1058.0,13.30971658,Europe/Rome,,,,MADDALENA - DI BELLA,0,1058,1
38.09652203,1,1059.0,13.30976889,Europe/Rome,,,,MADDALENA - DI BELLA,0,1059,1
38.16074,1,1696.0,13.31114,Europe/Rome,,,,REGIONE SICILIANA - TRABUCCO 2,0,1696,1
38.1549570783,1,1697.0,13.3182536683,Europe/Rome,,,,REGIONE SICILIANA - TRABUCCO 3,0,1697,1
38.1007761133,1,1694.0,13.3314294467,Europe/Rome,,,,REGIONE SICILIANA - SS. MEDIATRICE,0,1694,1
38.16355833,1,1695.0,13.30765333,Europe/Rome,,,,REGIONE SICILIANA - TRABUCCO 1,0,1695,1
38.14414,1,1692.0,13.3307475,Europe/Rome,,,,REGIONE SICILIANA - SARDEGNA,0,1692,1
38.12748833,1,1693.0,13.32987833,Europe/Rome,,,,REGIONE SICILIANA - SCOBAR,0,1693,1
38.09053308,1,1690.0,13.383006644,Europe/Rome,,,,REGIONE SICILIANA - SAN CIRO,0,1690,1
38.1367858325,1,1691.0,13.330524585,Europe/Rome,,,,REGIONE SICILIANA - SANTUARIO DI CRUILLAS,0,1691,1
38.09141583,1,1791.0,13.361735,Europe/Rome,,,,S. FILIPPO - SIRIO,0,1791,1
38.0894439133,1,1698.0,13.3616332017,Europe/Rome,,,,REGIONE SICILIANA - TROINA,0,1698,1
38.0893518,1,1699.0,13.361738895,Europe/Rome,,,,REGIONE SICILIANA - TROINA,0,1699,1
38.0839825,1,1278.0,13.325413335,Europe/Rome,,,,OLIO DI LINO 13,0,1278,1
38.08493833,1,1279.0,13.326413335,Europe/Rome,,,,OLIO DI LINO 14,0,1279,1
38.09154333,1,618.0,13.41271167,Europe/Rome,,,,DEI MILLE - BANDITA,0,618,1
38.10569034,1,619.0,13.3750273933,Europe/Rome,,,,DEI MILLE - BENNICI,0,619,1
38.116315,1,612.0,13.33716833,Europe/Rome,,,,DEGLI EMIRI - GIARRUSSO,0,612,1
38.11540092,1,613.0,13.333147015,Europe/Rome,,,,DEGLI EMIRI - NINA SICILIANA,0,613,1
38.08227167,1,610.0,13.30606,Europe/Rome,,,,DECANO,0,610,1
38.078513685,1,1273.0,13.313498255,Europe/Rome,,,,OLIO DI LINO - MOLARA,0,1273,1
38.1103292286,1,616.0,13.3694141929,Europe/Rome,,,,DEI MILLE - BALSAMO,0,616,1
38.09147667,1,617.0,13.4127,Europe/Rome,,,,DEI MILLE - BANDITA,0,617,1
38.081227835,1,1276.0,13.32071113,Europe/Rome,,,,OLIO DI LINO 11,0,1276,1
38.08315,1,1277.0,13.324454165,Europe/Rome,,,,OLIO DI LINO 12,0,1277,1
38.12340313,1,1795.0,13.30087196,Europe/Rome,,,,S. ISIDORO - GIOIOSA MAREA,0,1795,1
38.11944963,1,1794.0,13.29995263,Europe/Rome,,,,S. ISIDORO - ALLA FALCONARA,0,1794,1
38.126275,1,1472.0,13.35756333,,,80000.0,,PIAZZA DON STURZO,0,1472,1
38.12898667,1,1473.0,13.3285,Europe/Rome,,,,PIAZZA EISTEIN,0,1473,1
38.13136172,1,1470.0,13.359980895,Europe/Rome,,,,PIAZZA DELLA PACE,0,1470,1
38.1981502933,1,1471.0,13.30957977,Europe/Rome,,,,PIAZZA DELLA SERENITA',0,1471,1
38.11487667,1,1476.0,13.34650667,Europe/Rome,,,,PIAZZA INGASTONE,0,1476,1
38.14517258,1,1477.0,13.3153958733,Europe/Rome,,,,PIAZZA LAMPADA DELLA FRATERNITA',0,1477,1
38.10076667,1,1474.0,13.33847833,Europe/Rome,,,,PIAZZA G.LE TURBA,0,1474,1
38.10187,1,1475.0,13.33916,Europe/Rome,,,,PIAZZA G.LE TURBA - CATALANO,0,1475,1
38.18838333,1,1478.0,13.28934167,Europe/Rome,,,,PIAZZA MANDORLE,0,1478,1
38.170005,1,1479.0,13.32383833,Europe/Rome,,,,PIAZZA MARIA CONSOLATRICE,0,1479,1
38.09435418,1,1304.0,13.37522283,Europe/Rome,,,,ORETO - ORSI,0,1304,1
38.09249552,1,1305.0,13.3764258,Europe/Rome,,,,ORETO - REGIONE SICILIANA,0,1305,1
38.092508925,1,1306.0,13.376533555,Europe/Rome,,,,ORETO - REGIONE SICILIANA,0,1306,1
38.1091551314,1,1307.0,13.3656174586,Europe/Rome,,,,ORETO - S. ANTONINO,0,1307,1
38.1061196214,1,1300.0,13.3676850286,Europe/Rome,,,,ORETO - MENDOLA,0,1300,1
38.09687032,1,1301.0,13.3736001,Europe/Rome,,,,ORETO - ORSA MINORE,0,1301,1
38.09679405,1,1302.0,13.373769985,Europe/Rome,,,,ORETO - ORSA MINORE,0,1302,1
38.0975784825,1,1303.0,13.3730289975,Europe/Rome,,,,ORETO - ORSA MINORE - O.S.6,0,1303,1
38.094044935,1,1308.0,13.37554671,Europe/Rome,,,,ORETO - SIRILLO,0,1308,1
38.0938111133,1,1309.0,13.3633083333,Europe/Rome,,,,ORSA MAGGIORE - CAPRICORNO,0,1309,1
38.116531495,1,498.0,13.34603235,Europe/Rome,,,,CONTESSA GIUDITTA,0,498,1
38.180491645,1,499.0,13.317756135,Europe/Rome,,,,COPPI,0,499,1
38.07858333,1,494.0,13.41016667,Europe/Rome,,,,CONTE FEDERICO - VALDAURA,0,494,1
38.08963319,1,495.0,13.39493409,Europe/Rome,,,,CONTE FEDERICO 2,0,495,1
38.09075771,1,496.0,13.392651375,Europe/Rome,,,,CONTE FEDERICO 1,0,496,1
38.09393623,1,497.0,13.38549972,Europe/Rome,,,,CONTE FEDERICO - CHIAZZESE,0,497,1
38.08964781,1,490.0,13.39478016,Europe/Rome,,,,CONTE FEDERICO 2,0,490,1
38.07856199,1,491.0,13.41012374,Europe/Rome,,,,CONTE FEDERICO - VALDAURA,0,491,1
38.07662375,1,492.0,13.41380775,Europe/Rome,,,,CONTE FEDERICO - TOMASELLI,0,492,1
38.07648334,1,493.0,13.4141551,Europe/Rome,,,,CONTE FEDERICO - TOMASELLI,0,493,1
38.1317962231,1,,13.3309688458,Europe/Rome,,,,PIAZZALE JOHN LENNON,1,50000,1
38.1312748833,1,25.0,13.3020994967,Europe/Rome,,,,ACIREALE - BISACQUINO,0,25,1
38.13107667,1,26.0,13.30176333,Europe/Rome,,,,ACIREALE - BISACQUINO,0,26,1
38.13027317,1,27.0,13.29973959,Europe/Rome,,,,ACIREALE - PIAZZA S. CRISTINA,0,27,1
38.183475835,1,20.0,13.2907675,Europe/Rome,,,,ACC. A29 VALLE 4,0,20,1
38.090426565,1,21.0,13.3819362775,Europe/Rome,,,,ACC. MONTE A19 - BRASCA,0,21,1
38.088623005,1,22.0,13.387116945,Europe/Rome,,,,ACC. MONTE A19 - CIACULLI,0,22,1
38.08705226,1,23.0,13.39603275,Europe/Rome,,,,ACC. MONTE A19 - GALEANO,0,23,1
38.159355,1,927.0,13.316475,Europe/Rome,,,,LA MALFA - AST,0,927,1
38.1219443667,1,28.0,13.29744929,Europe/Rome,,,,AI VILLINI A S. ISIDORO - DE FRANCISCO,0,28,1
38.1201661133,1,29.0,13.2986400033,Europe/Rome,,,,AI VILLINI A S. ISIDORO - FALCONARA,0,29,1
38.189454388,1,1241.0,13.294237858,Europe/Rome,,,,NICOLETTI - PARTANNA MONDELLO,0,1241,1
38.1318,1,1511.0,13.331140405,,,50000.0,,PIAZZALE JOHN LENNON 102,0,1511,1
38.170071665,1,7.0,13.300086665,Europe/Rome,,,,ACC. A29 MONTE - MONTE ROSA,0,7,1
38.114366685,1,976.0,13.3379573,Europe/Rome,,,,L'EMIRO - ARISTIPPO,0,976,1
38.1403029175,1,970.0,13.3327683325,Europe/Rome,,,,LAZIO - MUNICIPIO,0,970,1
38.14359723,1,1087.0,13.32945813,Europe/Rome,,,,MANDALA' - BUZZANCA,0,1087,1
38.1621122767,1,1086.0,13.3233560767,Europe/Rome,,,,MALTESE,0,1086,1
38.1080490567,1,1876.0,13.3609611267,Europe/Rome,,,,SALAMONE MARINO,0,1876,1
38.082324165,1,1877.0,13.31798917,Europe/Rome,,,,SAMBUCIA,0,1877,1
38.19748167,1,1874.0,13.31964333,Europe/Rome,,,,SALINE,0,1874,1
38.19747167,1,1875.0,13.31955167,Europe/Rome,,,,SALINE,0,1875,1
38.1891335433,1,1872.0,13.29085352,Europe/Rome,,,,SALGARI - PARTANNA MONDELLO,0,1872,1
38.128740205,1,1873.0,13.3462497,Europe/Rome,,,,SALINAS - VILLA TRABIA,0,1873,1
38.1882072,1,1870.0,13.29153255,Europe/Rome,,,,SALGARI - PAPINI,0,1870,1
38.18911266,1,1871.0,13.29081774,Europe/Rome,,,,SALGARI - PARTANNA MONDELLO,0,1871,1
38.124124165,1,1083.0,13.348105,Europe/Rome,,,,MALASPINA - PIAZZA VIRGILIO,0,1083,1
38.08892,1,1878.0,13.328675,Europe/Rome,,,,SAMBUCIA - EMMA,0,1878,1
38.08883928,1,1879.0,13.32866102,Europe/Rome,,,,SAMBUCIA - EMMA,0,1879,1
38.11432678,1,977.0,13.3380045,Europe/Rome,,,,L'EMIRO - CASTELLUCCIO,0,977,1
38.1074154163,1,182.0,13.35440875,Europe/Rome,,,,BASILE - RE RUGGERO,0,182,1
38.103608335,1,975.0,13.354156665,Europe/Rome,,,,LAZZARO,0,975,1
38.14320167,1,974.0,13.34135333,Europe/Rome,,,,LAZIO - SICILIA,0,974,1
38.14215333,1,973.0,13.33811,Europe/Rome,,,,LAZIO - SCIUTI,0,973,1
38.1417157075,1,972.0,13.33697267,Europe/Rome,,,,LAZIO - SCIUTI,0,972,1
38.1405195514,1,971.0,13.33312843,Europe/Rome,,,,LAZIO - MUNICIPIO,0,971,1
38.139365,1,2119.0,13.34900667,Europe/Rome,,,,VILLABIANCA - AUTONOMIA SICILIANA,0,2119,1
38.12898833,1,1080.0,13.339925,Europe/Rome,,,,MALASPINA - LULLI,0,1080,1
38.11472457,1,979.0,13.33985925,Europe/Rome,,,,L'EMIRO - EDRISI,0,979,1
38.11462333,1,978.0,13.33955333,Europe/Rome,,,,L'EMIRO - DI SVEVIA,0,978,1
38.1393664833,1,2118.0,13.34914391,Europe/Rome,,,,VILLABIANCA - AUTONOMIA SICILIANA,0,2118,1
38.0984769029,1,183.0,13.3464504771,Europe/Rome,,,,BASILE - SABATO,0,183,1
38.10346667,1,180.0,13.32211167,Europe/Rome,,,,BASILE - PIETRATAGLIATA,0,180,1
38.0967486877,1,181.0,13.3447052785,Europe/Rome,,,,BASILE - RAITI,0,181,1
38.15147667,1,186.0,13.33063333,Europe/Rome,,,,BELGIO,0,186,1
38.1512294433,1,187.0,13.33051389,Europe/Rome,,,,BELGIO,0,187,1
38.1056576186,1,184.0,13.3517433343,Europe/Rome,,,,BASILE - UNIVERSITA' SEGRETERIE,0,184,1
38.1065304814,1,185.0,13.3526203357,Europe/Rome,,,,BASILE - UNIVERSITA' SEGRETERIE,0,185,1
38.118562495,1,2110.0,13.34597991,Europe/Rome,,,,VENEZIANO - FINOCCHIARO APRILE,0,2110,1
38.120480335,1,2111.0,13.345263825,Europe/Rome,,,,VENEZIANO - VILLA FLORIO,0,2111,1
38.0944400033,1,2112.0,13.34494222,Europe/Rome,,,,VERDINOIS,0,2112,1
38.1646493,1,2113.0,13.3693276725,Europe/Rome,,,,VERGINE MARIA,0,2113,1
38.163446356,1,2114.0,13.320113285,Europe/Rome,,,,VILLA ADRIANA,0,2114,1
38.1542775892,1,2115.0,13.3376897583,Europe/Rome,,,,VILLA SOFIA - CROCE ROSSA,0,2115,1
38.1362939133,1,2116.0,13.3511339133,Europe/Rome,,,,VILLABIANCA - ARIMONDI,0,2116,1
38.13616101,1,2117.0,13.3510796,Europe/Rome,,,,VILLABIANCA - ARIMONDI,0,2117,1
38.10168667,1,1919.0,13.337525,Europe/Rome,,,,SCHIFANI,0,1919,1
38.14042722,1,1918.0,13.3114083333,Europe/Rome,,,,SCAGLIONE - BELLAVISTA,0,1918,1
38.124635835,1,1911.0,13.33070167,Europe/Rome,,,,SAURO - MONTUORO,0,1911,1
38.123414585,1,1910.0,13.331840185,Europe/Rome,,,,SAURO - GUALTIERO,0,1910,1
38.122926315,1,1913.0,13.33221562,Europe/Rome,,,,SAURO - NOCE,0,1913,1
38.124679755,1,1912.0,13.33213985,Europe/Rome,,,,SAURO - MONTUORO,0,1912,1
38.1400222233,1,1915.0,13.31310611,Europe/Rome,,,,SCAGLIONE - BRUNELLESCHI,0,1915,1
38.10875222,1,188.0,13.35557523,Europe/Rome,,,,BENEDETTINI,0,188,1
38.14114401,1,1917.0,13.30932966,Europe/Rome,,,,SCAGLIONE - CATALANO,0,1917,1
38.1404018733,1,1916.0,13.3117134133,Europe/Rome,,,,SCAGLIONE - CATALANO,0,1916,1
38.14274361,1,869.0,13.3571201533,Europe/Rome,,,,GENERALE CASCINO - FIERA DEL MEDITERRANEO,0,869,1
38.2086782467,1,868.0,13.3273573917,Europe/Rome,,,,GALLO,0,868,1
38.1085162867,1,189.0,13.37875345,Europe/Rome,,,,BENNICI,0,189,1
38.0920059833,1,861.0,13.4313072567,Europe/Rome,,,,GALLETTI - ZITA,0,861,1
38.0885611133,1,860.0,13.43281389,Europe/Rome,,,,GALLETTI - TAGLIAVIA,0,860,1
38.0910270633,1,863.0,13.43205006,Europe/Rome,,,,GALLETTI 1,0,863,1
38.0927710367,1,862.0,13.4308101133,Europe/Rome,,,,GALLETTI - ZITA,0,862,1
38.0942836767,1,865.0,13.4300318533,Europe/Rome,,,,GALLETTI 2,0,865,1
38.0944400167,1,864.0,13.4299834,Europe/Rome,,,,GALLETTI 2,0,864,1
38.0908887133,1,867.0,13.4320644767,Europe/Rome,,,,GALLETTI 1,0,867,1
38.0935577733,1,866.0,13.43036825,Europe/Rome,,,,GALLETTI 3,0,866,1
38.12835628,1,2024.0,13.293371634,Europe/Rome,,,,TINDARI - PANTALICA,0,2024,1
38.1287097233,1,2025.0,13.2956621817,Europe/Rome,,,,TINDARI 1,0,2025,1
38.1286521767,1,2026.0,13.2955481,Europe/Rome,,,,TINDARI 2,0,2026,1
38.1286164,1,2027.0,13.29649329,Europe/Rome,,,,TINDARI 4,0,2027,1
38.1352087767,1,2020.0,13.32285965,Europe/Rome,,,,TIEPOLO,0,2020,1
38.13495667,1,2021.0,13.32231667,Europe/Rome,,,,TIEPOLO - UDITORE,0,2021,1
38.1284449043,1,2022.0,13.2950613471,Europe/Rome,,,,TINDARI - CEFALU',0,2022,1
38.128307518,1,2023.0,13.293302932,Europe/Rome,,,,TINDARI - PANTALICA,0,2023,1
38.123425,1,712.0,13.32008,Europe/Rome,,,,DI BLASI - SAVONAROLA,0,712,1
38.11165191,1,2028.0,13.37679461,Europe/Rome,,,,TIRO A SEGNO,0,2028,1
38.20656667,1,2029.0,13.317115,Europe/Rome,,,,TOLOMEA,0,2029,1
38.1883358333,1,1502.0,13.2881338883,Europe/Rome,,,,PIAZZA TOMMASO NATALE - PIAZZA MANDORLE,0,1502,1
38.06776483,1,883.0,13.41784716,Europe/Rome,,,,GIARDINA,0,883,1
38.0678757,1,882.0,13.41794372,Europe/Rome,,,,GIARDINA,0,882,1
38.06850833,1,881.0,13.41881,Europe/Rome,,,,GIARDINA - DEI MILLE CROCE VERDE,0,881,1
38.098101022,1,880.0,13.391159234,Europe/Rome,,,,GIAFAR - TORRELUNGA,0,880,1
38.1310295043,1,887.0,13.3316717629,Europe/Rome,,,,GIOTTO - REGIONE SICILIANA,0,887,1
38.13082532,1,886.0,13.332688323,Europe/Rome,,,,GIOTTO - GALILEI,0,886,1
38.10646333,1,885.0,13.35925333,Europe/Rome,,,,GIORDANO,0,885,1
38.11489445,1,884.0,13.33806217,Europe/Rome,,,,GIARRUSSO,0,884,1
38.12029519,1,889.0,13.350662435,Europe/Rome,,,,GOETHE,0,889,1
38.10584667,1,888.0,13.36161833,Europe/Rome,,,,GIUFFRE',0,888,1
38.1896360783,1,1503.0,13.2862035717,Europe/Rome,,,,PIAZZA TOMMASO NATALE - STAZIONE FS,0,1503,1
38.08008667,1,775.0,13.4363,Europe/Rome,,,,EUROPA - PIEMONTE,0,775,1
38.07536,1,774.0,13.44855,Europe/Rome,,,,EUROPA - PIAVE,0,774,1
38.07619833,1,777.0,13.439925,Europe/Rome,,,,EUROPA - S. GIUSEPPE,0,777,1
38.07848,1,776.0,13.437715,Europe/Rome,,,,EUROPA - PUGLISI,0,776,1
38.1081373325,1,771.0,13.3657136475,Europe/Rome,,,,ERRANTE - PEREZ,0,771,1
38.10695819,1,770.0,13.363123095,Europe/Rome,,,,ERRANTE - CORAZZA,0,770,1
38.07551,1,773.0,13.44410333,Europe/Rome,,,,EUROPA - PELORITANI,0,773,1
38.07562,1,772.0,13.44195333,Europe/Rome,,,,EUROPA - DELLA RINASCITA,0,772,1
38.1185131633,1,779.0,13.2976064067,Europe/Rome,,,,FALCONARA - AI VILLINI A S. ISIDORO,0,779,1
38.075404165,1,778.0,13.4471625,Europe/Rome,,,,EUROPA - TAORMINA,0,778,1
38.08826881,1,77.0,13.3294584933,Europe/Rome,,,,ALTOFONTE - SAMBUCIA,0,77,1
38.090040395,1,76.0,13.33075509,Europe/Rome,,,,ALTOFONTE - SAMBUCIA,0,76,1
38.095125835,1,75.0,13.33602,Europe/Rome,,,,ALTOFONTE - REGIONE SICILIANA,0,75,1
38.094326665,1,74.0,13.33558333,Europe/Rome,,,,ALTOFONTE - REGIONE SICILIANA,0,74,1
38.09116667,1,73.0,13.3324939,Europe/Rome,,,,ALTOFONTE - PIAZZA PAGLIARELLI,0,73,1
38.0912595,1,72.0,13.332541215,Europe/Rome,,,,ALTOFONTE - PIAZZA PAGLIARELLI,0,72,1
38.08683667,1,71.0,13.3282394433,Europe/Rome,,,,ALTOFONTE - OLIO DI LINO,0,71,1
38.08689251,1,70.0,13.3282298767,Europe/Rome,,,,ALTOFONTE - OLIO DI LINO,0,70,1
38.092804305,1,79.0,13.33442584,Europe/Rome,,,,ALTOFONTE - VILLANI,0,79,1
38.09243536,1,78.0,13.333927545,Europe/Rome,,,,ALTOFONTE - VILLANI,0,78,1
38.1124221475,1,1043.0,13.37017105,Europe/Rome,,,,LINCOLN - ARCHIRAFI,0,1043,1
38.112041805,1,1042.0,13.3695019867,Europe/Rome,,,,LINCOLN - ARCHIRAFI,0,1042,1
38.137333335,1,1041.0,13.34741625,Europe/Rome,,,,LIBERTA' - VILLA PAINO,0,1041,1
38.1375893175,1,1040.0,13.347308115,Europe/Rome,,,,LIBERTA' - VILLA PAINO,0,1040,1
38.114413026,1,1047.0,13.374617312,Europe/Rome,,,,LINCOLN - VILLA GIULIA,0,1047,1
38.113065825,1,1046.0,13.3715188325,Europe/Rome,,,,LINCOLN - ORTO BOTANICO,0,1046,1
38.11363833,1,1045.0,13.372929014,Europe/Rome,,,,LINCOLN - ORTO BOTANICO,0,1045,1
38.1113112114,1,1044.0,13.3677653943,Europe/Rome,,,,LINCOLN - DEI MILLE,0,1044,1
38.1369883333,1,1049.0,13.3358908333,Europe/Rome,,,,LISZT,0,1049,1
38.1147900675,1,1048.0,13.3752757475,Europe/Rome,,,,LINCOLN - VILLA GIULIA,0,1048,1
38.10592737,1,1681.0,13.3299560667,Europe/Rome,,,,REGIONE SICILIANA - POLLACI,0,1681,1
38.098786332,1,1680.0,13.333423666,Europe/Rome,,,,REGIONE SICILIANA - PLATANIA,0,1680,1
38.09069654,1,1683.0,13.3429760867,Europe/Rome,,,,REGIONE SICILIANA - PONTE CORLEONE,0,1683,1
38.09102722,1,1682.0,13.3431883333,Europe/Rome,,,,REGIONE SICILIANA - PONTE CORLEONE,0,1682,1
38.1353452783,1,1685.0,13.3309230567,Europe/Rome,,,,REGIONE SICILIANA - PRINCIPE DI PATERNO',0,1685,1
38.112797085,1,1684.0,13.32982292,Europe/Rome,,,,REGIONE SICILIANA - PORTELLO,0,1684,1
38.08996333,1,1687.0,13.36349167,Europe/Rome,,,,REGIONE SICILIANA - S. FILIPPO,0,1687,1
38.090044625,1,1686.0,13.3632986333,Europe/Rome,,,,REGIONE SICILIANA - S. FILIPPO,0,1686,1
38.090090172,1,1689.0,13.373399518,Europe/Rome,,,,REGIONE SICILIANA - S. M. DI GESU',0,1689,1
38.08972396,1,1688.0,13.3738559667,Europe/Rome,,,,REGIONE SICILIANA - S. M. DI GESU',0,1688,1
38.1891,1,1269.0,13.30139667,Europe/Rome,,,,OLIMPO - VILLA SCALEA,0,1269,1
38.18888333,1,1268.0,13.30238833,Europe/Rome,,,,OLIMPO - VILLA SCALEA,0,1268,1
38.06909333,1,669.0,13.41822833,Europe/Rome,,,,DEI MILLE CROCE VERDE - CIACULLI,0,669,1
38.06952065,1,668.0,13.41753602,Europe/Rome,,,,DEI MILLE CROCE VERDE - CIACULLI,0,668,1
38.18887167,1,1263.0,13.307595,Europe/Rome,,,,OLIMPO - CHIRONE,0,1263,1
38.18903544,1,1262.0,13.32019433,Europe/Rome,,,,OLIMPO - CASTELFORTE,0,1262,1
38.18887596,1,1261.0,13.320785855,Europe/Rome,,,,OLIMPO - CASTELFORTE,0,1261,1
38.08459833,1,664.0,13.42501167,Europe/Rome,,,,DEI MILLE 2,0,664,1
38.087875,1,663.0,13.42109,Europe/Rome,,,,DEI MILLE 1,0,663,1
38.188869245,1,1266.0,13.3167505,Europe/Rome,,,,OLIMPO - PALASPORT,0,1266,1
38.18909333,1,1265.0,13.30427667,Europe/Rome,,,,OLIMPO - EURIPIDE,0,1265,1
38.18909333,1,1264.0,13.3068,Europe/Rome,,,,OLIMPO - CHIRONE,0,1264,1
38.12124167,1,1914.0,13.32095667,Europe/Rome,,,,SAVONAROLA - PERPIGNANO,0,1914,1
38.083353525,1,421.0,13.36817935,Europe/Rome,,,,CHIAVELLI - SEMILIA,0,421,1
38.13192833,1,1469.0,13.36009667,Europe/Rome,,,,PIAZZA DELLA PACE,0,1469,1
38.12009409,1,1468.0,13.340327805,Europe/Rome,,,,PIAZZA CAMPOREALE,0,1468,1
38.165554995,1,1465.0,13.3675778275,Europe/Rome,,,,PIAZZA BORDONARO,0,1465,1
38.1325125,1,1464.0,13.34259,Europe/Rome,,,,PIAZZA BOIARDO,0,1464,1
38.1200926233,1,1467.0,13.3402302833,Europe/Rome,,,,PIAZZA CAMPOREALE,0,1467,1
38.16541861,1,1466.0,13.368335835,Europe/Rome,,,,PIAZZA BORDONARO,0,1466,1
38.11410333,1,1461.0,13.29632667,Europe/Rome,,,,PIAZZA BAIDA,0,1461,1
38.12993121,1,1460.0,13.2980024833,Europe/Rome,,,,PIAZZA ARMERINA - PIAZZA S.CRISTINA,0,1460,1
38.10826783,1,1463.0,13.30573753,Europe/Rome,,,,PIAZZA BARONE TURRISI,0,1463,1
38.1142301325,1,1462.0,13.2961979275,Europe/Rome,,,,PIAZZA BAIDA,0,1462,1
38.095535634,1,1317.0,13.36929257,Europe/Rome,,,,ORSA MINORE - CHIAVELLI,0,1317,1
38.094845415,1,1316.0,13.367998335,Europe/Rome,,,,ORSA MINORE - CHIAVELLI,0,1316,1
38.09134188,1,1315.0,13.36533755,Europe/Rome,,,,ORSA MINORE - ALBIRI,0,1315,1
38.09072167,1,1314.0,13.36555667,Europe/Rome,,,,ORSA MINORE - ALBIRI,0,1314,1
38.0937266667,1,1313.0,13.3614244433,Europe/Rome,,,,ORSA MAGGIORE - VILLAGRAZIA,0,1313,1
38.09380157,1,1312.0,13.3648189033,Europe/Rome,,,,ORSA MAGGIORE - ORSA MINORE,0,1312,1
38.0938944467,1,1311.0,13.3651505567,Europe/Rome,,,,ORSA MAGGIORE - ORSA MINORE,0,1311,1
38.0937391367,1,1310.0,13.3631799433,Europe/Rome,,,,ORSA MAGGIORE - CAPRICORNO,0,1310,1
38.0968854,1,1319.0,13.3724569333,Europe/Rome,,,,ORSA MINORE - ORETO,0,1319,1
38.0968981975,1,1318.0,13.3722160025,Europe/Rome,,,,ORSA MINORE - ORETO,0,1318,1
38.1909460133,1,529.0,13.34430157,Europe/Rome,,,,CRISTOFORO COLOMBO - CARONIA ROBERTI,0,529,1
38.13705128,1,319.0,13.3629638,Europe/Rome,,,,CANTIERI - JUVARA,0,319,1
38.13613042,1,318.0,13.35959896,Europe/Rome,,,,CANTIERI - GIACHERY,0,318,1
38.12861833,1,313.0,13.336585,Europe/Rome,,,,CAMPOLO - PACINOTTI,0,313,1
38.14491917,1,312.0,13.3387325,Europe/Rome,,,,CAMPANIA - PUGLIA,0,312,1
38.1446375,1,311.0,13.3393575,Europe/Rome,,,,CAMPANIA - BRIGATA VERONA,0,311,1
38.17461834,1,310.0,13.334559895,Europe/Rome,,,,CAMARINA,0,310,1
38.1361494,1,317.0,13.3593455,Europe/Rome,,,,CANTIERI - GIACHERY,0,317,1
38.13717997,1,316.0,13.36382747,Europe/Rome,,,,CANTIERI - BARCA,0,316,1
38.1196522733,1,315.0,13.3404529633,Europe/Rome,,,,CAMPOREALE - GILI,0,315,1
38.1290551767,1,314.0,13.33733529,Europe/Rome,,,,CAMPOLO - SERRADIFALCO,0,314,1
38.103495845,1,1335.0,13.386760705,Europe/Rome,,,,PADRE PUGLISI - D'AOSTA,0,1335,1
38.10333292,1,1334.0,13.38680308,Europe/Rome,,,,PADRE PUGLISI - D'AOSTA,0,1334,1
38.13601466,1,1337.0,13.30883931,Europe/Rome,,,,PALADINI - BARISANO DA TRANI,0,1337,1
38.13584667,1,1336.0,13.30904167,Europe/Rome,,,,PALADINI - BARISANO DA TRANI,0,1336,1
38.085282085,1,420.0,13.36855285,Europe/Rome,,,,CHIAVELLI - SCIACCA,0,420,1
38.09411249,1,1331.0,13.42306674,Europe/Rome,,,,PADRE KOLBE - MONTANA,0,1331,1
38.08497491,1,446.0,13.39388162,Europe/Rome,,,,CIACULLI 2,0,446,1
38.102692185,1,1333.0,13.38832637,Europe/Rome,,,,PADRE PUGLISI - ALAGNA,0,1333,1
38.10202601,1,1332.0,13.389425795,Europe/Rome,,,,PADRE PUGLISI - ALAGNA,0,1332,1
38.096335195,1,630.0,13.39870167,Europe/Rome,,,,DEI MILLE - CORSELLI,0,630,1
38.1002843467,1,631.0,13.3843229667,Europe/Rome,,,,DEI MILLE - D'AOSTA,0,631,1
38.13224059,1,404.0,13.29363003,Europe/Rome,,,,CENTURIPE - AUGUSTA,0,404,1
38.09576917,1,632.0,13.40060917,Europe/Rome,,,,DEI MILLE - DEL CARMELO,0,632,1
38.13155385,1,1521.0,13.330956325,,,50000.0,,PIAZZALE JOHN LENNON 544,0,1521,1
38.201395058,1,1612.0,13.26771117,Europe/Rome,,,,R.T. MARCONI,0,1612,1
38.13225619,1,402.0,13.295695215,Europe/Rome,,,,CENTURIPE - ALIA,0,402,1
38.09715333,1,1861.0,13.40797833,Europe/Rome,,,,SACCO E VANZETTI 1,0,1861,1
38.098064165,1,1860.0,13.4055475,Europe/Rome,,,,SACCO E VANZETTI - XXVII MAGGIO,0,1860,1
38.0963975,1,1863.0,13.410306665,Europe/Rome,,,,SACCO E VANZETTI 2,0,1863,1
38.09637216,1,1862.0,13.41022432,Europe/Rome,,,,SACCO E VANZETTI 2,0,1862,1
38.145054945,1,1865.0,13.3552422875,Europe/Rome,,,,SADAT - AUTONOMIA SICILIANA,0,1865,1
38.09723583,1,1864.0,13.407985835,Europe/Rome,,,,SACCO E VANZETTI 1,0,1864,1
38.11176667,1,1867.0,13.333323335,Europe/Rome,,,,SALEMI - COMELLA,0,1867,1
38.1465305125,1,1866.0,13.35404615,Europe/Rome,,,,SADAT - FIERA,0,1866,1
38.1882780033,1,1869.0,13.29157015,Europe/Rome,,,,SALGARI - JACK LONDON,0,1869,1
38.11230167,1,1868.0,13.332775835,Europe/Rome,,,,SALEMI - LA TORRE,0,1868,1
38.09307603,1,964.0,13.41012642,Europe/Rome,,,,LAUDICINA 3,0,964,1
38.142477545,1,965.0,13.3391760525,Europe/Rome,,,,LAZIO - CAMPANIA,0,965,1
38.14267333,1,966.0,13.33962333,Europe/Rome,,,,LAZIO - CAMPANIA,0,966,1
38.1409852925,1,967.0,13.334783185,Europe/Rome,,,,LAZIO - DELLE ALPI,0,967,1
38.11678472,1,960.0,13.347227275,Europe/Rome,,,,LASCARIS - ZISA,0,960,1
38.122735695,1,961.0,13.35056177,Europe/Rome,,,,LATINI,0,961,1
38.092815,1,962.0,13.41024167,Europe/Rome,,,,LAUDICINA 1,0,962,1
38.09429402,1,963.0,13.41102362,Europe/Rome,,,,LAUDICINA 2,0,963,1
38.1437767325,1,1613.0,13.35748094,Europe/Rome,,,,RABIN - AMMIRAGLIO RIZZO,0,1613,1
38.1310554,1,401.0,13.30094978,Europe/Rome,,,,CENTURIPE - ACIREALE,0,401,1
38.1414015467,1,968.0,13.33579381,Europe/Rome,,,,LAZIO - DELLE ALPI,0,968,1
38.14371167,1,969.0,13.34276667,Europe/Rome,,,,LAZIO - LIBERTA',0,969,1
38.121535765,1,2109.0,13.34488757,Europe/Rome,,,,VENEZIANO - DANTE,0,2109,1
38.1898489833,1,2108.0,13.3294623367,Europe/Rome,,,,VENERE,0,2108,1
38.1901240067,1,2103.0,13.33151192,Europe/Rome,,,,VENERE - MARGHERITA DI SAVOIA,0,2103,1
38.18918441,1,2102.0,13.3247673267,Europe/Rome,,,,VENERE - CASTELFORTE,0,2102,1
38.1891246033,1,2101.0,13.3250240067,Europe/Rome,,,,VENERE - CASTELFORTE,0,2101,1
38.14476061,1,2100.0,13.31533983,Europe/Rome,,,,VANVITELLI - PIAZZA LAMPADA DELLA FRATERNITA',0,2100,1
38.1897601,1,2107.0,13.32946071,Europe/Rome,,,,VENERE,0,2107,1
38.18957,1,2106.0,13.32745,Europe/Rome,,,,VENERE - MARINAI ALLIATA,0,2106,1
38.189512385,1,2105.0,13.32771852,Europe/Rome,,,,VENERE - MARINAI ALLIATA,0,2105,1
38.19009559,1,2104.0,13.33196527,Europe/Rome,,,,VENERE - MARGHERITA DI SAVOIA,0,2104,1
38.1244371933,1,30.0,13.2997693467,Europe/Rome,,,,AI VILLINI A S. ISIDORO - S. ISIDORO,0,30,1
38.13114499,1,400.0,13.3009379,Europe/Rome,,,,CENTURIPE - ACIREALE,0,400,1
38.11056,1,1560.0,13.33883333,Europe/Rome,,,,PITRE' - PINDEMONTE,0,1560,1
38.1024197625,1,641.0,13.380000805,Europe/Rome,,,,DEI MILLE - LETTERIO,0,641,1
38.095948975,1,636.0,13.4002769,Europe/Rome,,,,DEI MILLE - FORNI,0,636,1
38.09671095,1,878.0,13.38993475,Europe/Rome,,,,GIAFAR - PECORAINO,0,878,1
38.09665501,1,879.0,13.38998035,Europe/Rome,,,,GIAFAR - PECORAINO,0,879,1
38.09402594,1,876.0,13.387734,Europe/Rome,,,,GIAFAR - PANZERA,0,876,1
38.09392989,1,877.0,13.38775277,Europe/Rome,,,,GIAFAR - PANZERA,0,877,1
38.09222004,1,874.0,13.3862333,Europe/Rome,,,,GIAFAR - BRASCA,0,874,1
38.09168667,1,875.0,13.38588,Europe/Rome,,,,GIAFAR - BRASCA,0,875,1
38.135798875,1,873.0,13.35795508,Europe/Rome,,,,GIACHERY,0,873,1
38.14415833,1,870.0,13.34417,Europe/Rome,,,,GENERALE DI GIORGIO,0,870,1
38.18274111,1,2037.0,13.2932116667,Europe/Rome,,,,TOMMASO NATALE - CROCETTA,0,2037,1
38.1831311133,1,2036.0,13.29303722,Europe/Rome,,,,TOMMASO NATALE - CROCETTA,0,2036,1
38.1757783333,1,2035.0,13.29942611,Europe/Rome,,,,TOMMASO NATALE - COSTANTINO,0,2035,1
38.1754632333,1,2034.0,13.2999435067,Europe/Rome,,,,TOMMASO NATALE - COSTANTINO,0,2034,1
38.17791722,1,2033.0,13.2969627767,Europe/Rome,,,,TOMMASO NATALE - BETTI,0,2033,1
38.1778349967,1,2032.0,13.29715611,Europe/Rome,,,,TOMMASO NATALE - BETTI,0,2032,1
38.174425,1,2031.0,13.3014761133,Europe/Rome,,,,TOMMASO NATALE - BESTA,0,2031,1
38.17398686,1,2030.0,13.3020934667,Europe/Rome,,,,TOMMASO NATALE - BESTA,0,2030,1
38.172138335,1,9.0,13.29821,Europe/Rome,,,,ACC. A29 MONTE - SCHELLEY,0,9,1
38.08857,1,645.0,13.41997167,Europe/Rome,,,,DEI MILLE - MILO GUGGINO,0,645,1
38.17266708,1,2039.0,13.3035870825,Europe/Rome,,,,TOMMASO NATALE - MINUTILLA,0,2039,1
38.172309975,1,2038.0,13.30393354,Europe/Rome,,,,TOMMASO NATALE - MINUTILLA,0,2038,1
38.09042572,1,890.0,13.37329835,Europe/Rome,,,,GRAMSCI,0,890,1
38.09729037,1,891.0,13.36748064,Europe/Rome,,,,GRECA,0,891,1
38.179215605,1,893.0,13.318228805,Europe/Rome,,,,GUERRA,0,893,1
38.11592,1,894.0,13.34350167,Europe/Rome,,,,GUERRAZZI,0,894,1
38.0827075,1,895.0,13.360915835,Europe/Rome,,,,GUIDO ROSSA,0,895,1
38.17492,1,896.0,13.31408667,Europe/Rome,,,,GUTTUSO,0,896,1
38.124645,1,897.0,13.33215167,Europe/Rome,,,,HOLM - GUALTIERO,0,897,1
38.12559167,1,898.0,13.33203667,Europe/Rome,,,,HOLM - GUALTIERO,0,898,1
38.1281951267,1,899.0,13.33080135,Europe/Rome,,,,HOLM - LEONARDO DA VINCI,0,899,1
38.19105167,1,1246.0,13.2912,Europe/Rome,,,,NICOLETTI,0,1246,1
38.1163911475,1,1249.0,13.3319487025,,,40000.0,,NINA SICILIANA - SCUOLA LA TORRE,0,1249,1
38.118582854,1,1248.0,13.331441216,Europe/Rome,,,,NINA SICILIANA - PERPIGNANO,0,1248,1
38.09872299,1,1964.0,13.4049741,Europe/Rome,,,,SPERONE - XXVII MAGGIO,0,1964,1
38.10102333,1,1965.0,13.334305,Europe/Rome,,,,SS. MEDIATRICE - BARBARINO,0,1965,1
38.100495,1,1966.0,13.33286,Europe/Rome,,,,SS. MEDIATRICE - REGIONE SICILIANA,0,1966,1
38.0930040225,1,1788.0,13.36035899,Europe/Rome,,,,S. FILIPPO - COSTELLAZIONE,0,1788,1
38.09304162,1,1789.0,13.360751675,Europe/Rome,,,,S. FILIPPO - ORSA MAGGIORE,0,1789,1
38.08644109,1,768.0,13.36078718,Europe/Rome,,,,ERMELLINO - TROINA,0,768,1
38.08638985,1,769.0,13.360847824,Europe/Rome,,,,ERMELLINO - TROINA,0,769,1
38.10912562,1,265.0,13.345154635,Europe/Rome,,,,CALATAFIMI - ALBERGO DELLE POVERE,0,265,1
38.114096755,1,1780.0,13.295101225,Europe/Rome,,,,RUFFO DI CALABRIA - PIAZZA BAIDA,0,1780,1
38.087161255,1,763.0,13.3652987662,Europe/Rome,,,,ERMELLINO - LEVRIERE,0,763,1
38.08491263,1,760.0,13.3565104,Europe/Rome,,,,ERMELLINO - ANTILOPE,0,760,1
38.085013408,1,761.0,13.357105244,Europe/Rome,,,,ERMELLINO - CAMOSCIO,0,761,1
38.08671167,1,766.0,13.362295,Europe/Rome,,,,ERMELLINO - PAPA GIOVANNI XXIII,0,766,1
38.0866994975,1,767.0,13.362623785,Europe/Rome,,,,ERMELLINO - PAPA GIOVANNI XXIII,0,767,1
38.08569059,1,764.0,13.35856631,Europe/Rome,,,,ERMELLINO - LONTRA,0,764,1
38.085678806,1,765.0,13.3588793,Europe/Rome,,,,ERMELLINO - LONTRA,0,765,1
38.09941697,1,1962.0,13.39909516,Europe/Rome,,,,SPERONE - S. 74,0,1962,1
38.099479765,1,1963.0,13.399155515,Europe/Rome,,,,SPERONE - S. 74,0,1963,1
38.08878333,1,1078.0,13.31627333,Europe/Rome,,,,MAIO ONETO 2,0,1078,1
38.08963167,1,1079.0,13.31751333,Europe/Rome,,,,MAIO ONETO 1,0,1079,1
38.08970167,1,1076.0,13.3176,Europe/Rome,,,,MAIO ONETO 1,0,1076,1
38.10312545,1,1535.0,13.32638383,Europe/Rome,,,,PIETRATAGLIATA,0,1535,1
38.09036344,1,1074.0,13.31933498,Europe/Rome,,,,MAIO ONETO - ONETO,0,1074,1
38.09032544,1,1075.0,13.3193551,Europe/Rome,,,,MAIO ONETO - ONETO,0,1075,1
38.098954165,1,1072.0,13.355653335,Europe/Rome,,,,MADONIA - SOLI,0,1072,1
38.09904385,1,1073.0,13.35616867,Europe/Rome,,,,MADONIA - UGHETTI,0,1073,1
38.098314165,1,1070.0,13.351770835,Europe/Rome,,,,MADONIA - ROCCELLA,0,1070,1
38.098419165,1,1071.0,13.35147167,Europe/Rome,,,,MADONIA - ROCCELLA,0,1071,1
38.1162965406,1,,13.3318797564,Europe/Rome,,,,EMIRI - NINA SICILIANA,1,40000,1
38.1266070117,1,1678.0,13.3292118167,Europe/Rome,,,,REGIONE SICILIANA - PIAZZA EISTEIN,0,1678,1
38.109687334,1,1679.0,13.330247002,Europe/Rome,,,,REGIONE SICILIANA - PITRE',0,1679,1
38.117535068,1,1674.0,13.328640332,Europe/Rome,,,,REGIONE SICILIANA - PERGUSA,0,1674,1
38.1175522233,1,1675.0,13.3292061133,Europe/Rome,,,,REGIONE SICILIANA - PERPIGNANO,0,1675,1
38.119843575,1,1676.0,13.3284646,Europe/Rome,,,,REGIONE SICILIANA - PERPIGNANO,0,1676,1
38.1274308786,1,1677.0,13.3298727871,Europe/Rome,,,,REGIONE SICILIANA - PIAZZA EISTEIN,0,1677,1
38.0985362067,1,1670.0,13.3328682867,Europe/Rome,,,,REGIONE SICILIANA - PALMERINO,0,1670,1
38.090999526,1,1671.0,13.375424636,Europe/Rome,,,,REGIONE SICILIANA - PARATORE,0,1671,1
38.090854265,1,1672.0,13.375197335,Europe/Rome,,,,REGIONE SICILIANA - PARATORE,0,1672,1
38.1161061133,1,1673.0,13.3294133333,Europe/Rome,,,,"REGIONE SICILIANA - PARCHEGGIO ""DEGLI EMIRI""",0,1673,1
38.1111982433,1,1095.0,13.36433398,Europe/Rome,,,,MAQUEDA - S. ANTONINO,0,1095,1
38.177706425,1,1097.0,13.3187358,Europe/Rome,,,,MARCHESE PENSABENE,0,1097,1
38.16374512,1,678.0,13.3305949,Europe/Rome,,,,DEI QUARTIERI - DUCA DEGLI ABRUZZI,0,678,1
38.16373774,1,679.0,13.33075181,Europe/Rome,,,,DEI QUARTIERI - DUCA DEGLI ABRUZZI,0,679,1
38.1983687767,1,1092.0,13.2781202967,Europe/Rome,,,,MANDERINO - TERENZIO,0,1092,1
38.1132772433,1,1093.0,13.36297944,Europe/Rome,,,,MAQUEDA - PALAZZO COMITINI,0,1093,1
38.07085095,1,674.0,13.41765538,Europe/Rome,,,,DEI MILLE CROCE VERDE 3,0,674,1
38.07210099,1,675.0,13.41843054,Europe/Rome,,,,DEI MILLE CROCE VERDE 2,0,675,1
38.0731578,1,676.0,13.41910109,Europe/Rome,,,,DEI MILLE CROCE VERDE 1,0,676,1
38.1628984,1,677.0,13.32887828,Europe/Rome,,,,DEI QUARTIERI - DI GIOVANNI,0,677,1
38.06868023,1,670.0,13.41866121,Europe/Rome,,,,DEI MILLE CROCE VERDE - GIARDINA,0,670,1
38.07342279,1,671.0,13.41922179,Europe/Rome,,,,DEI MILLE CROCE VERDE 1,0,671,1
38.07209677,1,672.0,13.41837555,Europe/Rome,,,,DEI MILLE CROCE VERDE 2,0,672,1
38.07110117,1,673.0,13.41775194,Europe/Rome,,,,DEI MILLE CROCE VERDE 3,0,673,1
38.1495645417,1,1997.0,13.332738275,Europe/Rome,,,,STRASBURGO - DE GASPERI,0,1997,1
38.17249645,1,1418.0,13.31768811,Europe/Rome,,,,PATTI - DELLE PERGOLE,0,1418,1
38.179920835,1,1419.0,13.313519165,Europe/Rome,,,,PATTI - EINAUDI,0,1419,1
38.09664333,1,1410.0,13.31881333,Europe/Rome,,,,PARUTA - TERRANOVA - CHIESA,0,1410,1
38.0965611933,1,1411.0,13.3185684233,Europe/Rome,,,,PARUTA - TERRANOVA,0,1411,1
38.1303138,1,1412.0,13.35496813,Europe/Rome,,,,PASQUALE CALVI,0,1412,1
38.09560804,1,1413.0,13.41118187,Europe/Rome,,,,PASTORE,0,1413,1
38.0956327767,1,1414.0,13.41127889,Europe/Rome,,,,PASTORE,0,1414,1
38.12270333,1,1415.0,13.35191333,Europe/Rome,,,,PATERNOSTRO - SAMMARTINO,0,1415,1
38.1233702117,1,1416.0,13.35372505,Europe/Rome,,,,PATERNOSTRO - VILLAFRANCA,0,1416,1
38.17106046,1,1417.0,13.31942886,Europe/Rome,,,,PATTI - DELEGAZIONE,0,1417,1
38.09646837,1,1322.0,13.371058335,Europe/Rome,,,,ORSA MINORE - S. M. DI GESU',0,1322,1
38.0941704175,1,1323.0,13.36709,Europe/Rome,,,,ORSA MINORE,0,1323,1
38.09266167,1,1320.0,13.36566667,Europe/Rome,,,,ORSA MINORE - ORSA MAGGIORE,0,1320,1
38.0962200025,1,1321.0,13.3701366675,Europe/Rome,,,,ORSA MINORE - S. M. DI GESU',0,1321,1
38.1542191667,1,1326.0,13.3131802783,Europe/Rome,,,,OSPEDALE CERVELLO,0,1326,1
38.10369272,1,1327.0,13.3552908325,Europe/Rome,,,,OSPEDALE CIVICO,0,1327,1
38.0941127075,1,1324.0,13.3667155175,Europe/Rome,,,,ORSA MINORE,0,1324,1
38.09289132,1,1325.0,13.3656621,Europe/Rome,,,,ORSA MINORE  - ORSA MAGGIORE,0,1325,1
38.1292562533,1,1328.0,13.3351038767,Europe/Rome,,,,PACINOTTI,0,1328,1
38.09513521,1,1329.0,13.42621967,Europe/Rome,,,,PADRE KOLBE - AMM. CRISTODULO,0,1329,1
38.08684667,1,647.0,13.422445,Europe/Rome,,,,DEI MILLE - PALMA,0,647,1
38.1324560067,1,1256.0,13.34490002,Europe/Rome,,,,NOTARBARTOLO - MORELLO,0,1256,1
38.1331422633,1,1257.0,13.3476750833,Europe/Rome,,,,NOTARBARTOLO - PETRARCA,0,1257,1
38.121255125,1,1254.0,13.334840165,Europe/Rome,,,,NOCE - LITTARA,0,1254,1
38.131979305,1,1255.0,13.342919825,Europe/Rome,,,,NOTARBARTOLO - DI MARIA,0,1255,1
38.12065058,1,1252.0,13.33680488,Europe/Rome,,,,NOCE - LANCIA DI BROLO,0,1252,1
38.121166795,1,1253.0,13.335297875,Europe/Rome,,,,NOCE - LITTARA,0,1253,1
38.205655,1,1250.0,13.31835667,Europe/Rome,,,,NISO,0,1250,1
38.120616425,1,1251.0,13.33714558,Europe/Rome,,,,NOCE - LANCIA DI BROLO,0,1251,1
38.10332701,1,1529.0,13.385556045,Europe/Rome,,,,PICCIOTTI - D'AOSTA,0,1529,1
38.1332027433,1,1258.0,13.3475955767,Europe/Rome,,,,NOTARBARTOLO - PETRARCA,0,1258,1
38.13227278,1,1259.0,13.3440266633,Europe/Rome,,,,NOTARBARTOLO - SCIUTI,0,1259,1
38.0956994433,1,308.0,13.3122305533,Europe/Rome,,,,CALATAFIMI,0,308,1
38.0989255567,1,309.0,13.32007333,Europe/Rome,,,,CALATAFIMI,0,309,1
38.0945774075,1,300.0,13.3092931275,Europe/Rome,,,,CALATAFIMI - ROCCA,0,300,1
38.09721333,1,301.0,13.31587086,Europe/Rome,,,,CALATAFIMI - SCUOLA FELTRI,0,301,1
38.0969570667,1,302.0,13.3151609633,Europe/Rome,,,,CALATAFIMI - SCUOLA FELTRI,0,302,1
38.10662754,1,303.0,13.338996195,Europe/Rome,,,,CALATAFIMI - TRASSELLI,0,303,1
38.10132111,1,304.0,13.32596889,Europe/Rome,,,,CALATAFIMI - VILLA DELLE ROSE,0,304,1
38.1011891433,1,305.0,13.3255832833,Europe/Rome,,,,CALATAFIMI - VILLA DELLE ROSE,0,305,1
38.106179475,1,306.0,13.33804473,Europe/Rome,,,,CALATAFIMI - ZANCLA,0,306,1
38.105798235,1,307.0,13.336996725,Europe/Rome,,,,CALATAFIMI - ZANCLA,0,307,1
38.07637566,1,114.0,13.31076667,Europe/Rome,,,,AQUINO 2 MONTE,0,114,1
38.07738912,1,112.0,13.31219494,Europe/Rome,,,,AQUINO 1 MONTE,0,112,1
38.08523564,1,1898.0,13.34477305,Europe/Rome,,,,SAN FRANCESCO DI SALES,0,1898,1
38.08786167,1,1899.0,13.314595,Europe/Rome,,,,SANTICELLI - MAIO ONETO,0,1899,1
38.09281111,1,1894.0,13.38337809,Europe/Rome,,,,SAN CIRO - BAGNASCO,0,1894,1
38.09478058,1,1895.0,13.38337407,Europe/Rome,,,,SAN CIRO - CONTE FEDERICO,0,1895,1
38.09375786,1,1896.0,13.38325337,Europe/Rome,,,,SAN CIRO - MAREDOLCE,0,1896,1
38.09121839,1,1897.0,13.38430613,Europe/Rome,,,,SAN CIRO - REGIONE SICILIANA,0,1897,1
38.12596527,1,1890.0,13.349378405,Europe/Rome,,,,SAMMARTINO - SIRACUSA,0,1890,1
38.13789333,1,1891.0,13.35347167,Europe/Rome,,,,SAMPOLO - ARIMONDI,0,1891,1
38.13632451,1,1892.0,13.35523769,Europe/Rome,,,,SAMPOLO - LAURANA,0,1892,1
38.13919667,1,1893.0,13.352145,Europe/Rome,,,,SAMPOLO - STREVA,0,1893,1
38.1171485467,1,959.0,13.3493394833,Europe/Rome,,,,LASCARIS - IMERA,0,959,1
38.10170833,1,958.0,13.339255,Europe/Rome,,,,LARGO TRAINA - CATALANO,0,958,1
38.07453,1,2134.0,13.33052667,Europe/Rome,,,,VILLAGRAZIA - BELL'ALBA,0,2134,1
38.07323667,1,2135.0,13.32900333,Europe/Rome,,,,VILLAGRAZIA - CATENA,0,2135,1
38.08621771,1,2132.0,13.346980685,Europe/Rome,,,,VILLAGRAZIA - BARONE SCALA,0,2132,1
38.07455243,1,2133.0,13.33046749,Europe/Rome,,,,VILLAGRAZIA - BELL'ALBA,0,2133,1
38.07944667,1,2130.0,13.33432333,Europe/Rome,,,,VILLAGRAZIA - AGNETTA,0,2130,1
38.08613287,1,2131.0,13.34815264,Europe/Rome,,,,VILLAGRAZIA - BARONE SCALA,0,2131,1
38.18549333,1,951.0,13.30214167,Europe/Rome,,,,LANZA DI SCALEA 2,0,951,1
38.16937389,1,950.0,13.3150883333,Europe/Rome,,,,LANZA DI SCALEA 1,0,950,1
38.1689275,1,953.0,13.3152525,Europe/Rome,,,,LANZA DI SCALEA 1,0,953,1
38.18522,1,952.0,13.30216667,Europe/Rome,,,,LANZA DI SCALEA 2,0,952,1
38.18481402,1,955.0,13.30232039,Europe/Rome,,,,LANZA DI SCALEA MONTE - SAVARESE,0,955,1
38.18619493,1,954.0,13.30120191,Europe/Rome,,,,LANZA DI SCALEA MONTE - PICCOLO,0,954,1
38.18546667,1,957.0,13.30231833,Europe/Rome,,,,LANZA DI SCALEA VALLE - SCORDIA,0,957,1
38.18365762,1,956.0,13.30377817,Europe/Rome,,,,LANZA DI SCALEA VALLE - S. NICOLA,0,956,1
38.16120003,1,2002.0,13.322557515,Europe/Rome,,,,STRASBURGO - MALTESE,0,2002,1
38.1621042589,1,2003.0,13.3216494456,Europe/Rome,,,,STRASBURGO - MALTESE,0,2003,1
38.157813275,1,2000.0,13.32560112,Europe/Rome,,,,STRASBURGO - INGEGNEROS,0,2000,1
38.15761278,1,2001.0,13.3256791667,Europe/Rome,,,,STRASBURGO - INGEGNEROS,0,2001,1
38.158553055,1,2006.0,13.3247594433,Europe/Rome,,,,STRASBURGO - PANTELLERIA,0,2006,1
38.15557262,1,2007.0,13.3276585729,Europe/Rome,,,,STRASBURGO - SVIZZERA,0,2007,1
38.1608083617,1,2004.0,13.3227432967,Europe/Rome,,,,STRASBURGO - NUOVA,0,2004,1
38.1588802767,1,2005.0,13.3246025,Europe/Rome,,,,STRASBURGO - PANTELLERIA,0,2005,1
38.163195835,1,2008.0,13.320759545,Europe/Rome,,,,STRASBURGO - VILLA ADRIANA,0,2008,1
38.1975152,1,2009.0,13.275868966,Europe/Rome,,,,TACITO,0,2009,1
38.09523333,1,667.0,13.40233333,Europe/Rome,,,,DEI MILLE 4,0,667,1
38.095221665,1,666.0,13.40229667,Europe/Rome,,,,DEI MILLE 4,0,666,1
38.10085121,1,919.0,13.3722429,Europe/Rome,,,,LA COLLA,0,919,1
38.089593215,1,504.0,13.400891705,Europe/Rome,,,,CORLEONE - ZABAN,0,504,1
38.087865,1,665.0,13.42128333,Europe/Rome,,,,DEI MILLE 3,0,665,1
38.17013154,1,1799.0,13.306087525,Europe/Rome,,,,S. LORENZO - ANAS,0,1799,1
38.18887667,1,1260.0,13.31199333,Europe/Rome,,,,OLIMPO - ASPASIA,0,1260,1
38.156339075,1,719.0,13.34535316,Europe/Rome,,,,DIANA - COLONIA COMUNALE,0,719,1
38.16764645,1,718.0,13.33919406,Europe/Rome,,,,DIANA - CASA NATURA,0,718,1
38.15318805,1,717.0,13.348658265,Europe/Rome,,,,DIANA - CAMPO OSTACOLI,0,717,1
38.18906353,1,1267.0,13.31674503,Europe/Rome,,,,OLIMPO - PALASPORT,0,1267,1
38.09551667,1,715.0,13.40874333,Europe/Rome,,,,DI VITTORIO 1,0,715,1
38.09103157,1,1790.0,13.36190164,Europe/Rome,,,,S. FILIPPO - ORTIGIA,0,1790,1
38.12262302,1,1797.0,13.300363995,Europe/Rome,,,,S. ISIDORO 1,0,1797,1
38.120315125,1,1796.0,13.29976371,Europe/Rome,,,,S. ISIDORO - VILLALBA,0,1796,1
38.12347237,1,711.0,13.319951445,Europe/Rome,,,,DI BLASI - SAVONAROLA,0,711,1
38.09452397,1,662.0,13.403924405,Europe/Rome,,,,DEI MILLE - XXVII MAGGIO,0,662,1
38.094625,1,661.0,13.40358667,Europe/Rome,,,,DEI MILLE - XXVII MAGGIO,0,661,1
38.09633167,1,716.0,13.40641667,Europe/Rome,,,,DI VITTORIO 2,0,716,1
38.079520515,1,505.0,13.30412579,Europe/Rome,,,,CORPO DI GUARDIA,0,505,1
38.098345835,1,660.0,13.3929525,Europe/Rome,,,,DEI MILLE - VASSALLO,0,660,1
38.12830203,1,917.0,13.35628375,Europe/Rome,,,,ISIDORO CARINI,0,917,1
38.098483485,1,1069.0,13.354019685,Europe/Rome,,,,MADONIA - LI BASSI,0,1069,1
38.098515835,1,1068.0,13.354055525,Europe/Rome,,,,MADONIA - LI BASSI,0,1068,1
38.10883449,1,1061.0,13.30870271,Europe/Rome,,,,MADDALENA - PIAZZA MICCA,0,1061,1
38.10884821,1,1060.0,13.30863699,Europe/Rome,,,,MADDALENA - PIAZZA MICCA,0,1060,1
38.10506932,1,1063.0,13.31001565,Europe/Rome,,,,MADDALENA - POGGIO RIDENTE,0,1063,1
38.10511469,1,1062.0,13.30995932,Europe/Rome,,,,MADDALENA - POGGIO RIDENTE,0,1062,1
38.1068865,1,1065.0,13.30957174,Europe/Rome,,,,MADDALENA 1,0,1065,1
38.10697514,1,1064.0,13.30946177,Europe/Rome,,,,MADDALENA 1,0,1064,1
38.10188667,1,1067.0,13.31052333,Europe/Rome,,,,MADDALENA 2,0,1067,1
38.10194137,1,1066.0,13.31044883,Europe/Rome,,,,MADDALENA 2,0,1066,1
38.15703667,1,1668.0,13.315715,Europe/Rome,,,,REGIONE SICILIANA - OSPEDALE CERVELLO,0,1668,1
38.125302334,1,1667.0,13.329637668,Europe/Rome,,,,REGIONE SICILIANA - NAZARIO SAURO,0,1667,1
38.1352583325,1,1666.0,13.33034625,Europe/Rome,,,,REGIONE SICILIANA - MINEO,0,1666,1
38.1216475075,1,1665.0,13.3286554,Europe/Rome,,,,REGIONE SICILIANA - MAZZARELLO,0,1665,1
38.146573542,1,1664.0,13.32771076,Europe/Rome,,,,REGIONE SICILIANA - MANDALA',0,1664,1
38.09008833,1,1663.0,13.36488167,Europe/Rome,,,,REGIONE SICILIANA - LEVRIERE 3,0,1663,1
38.0901655783,1,1662.0,13.36477613,Europe/Rome,,,,REGIONE SICILIANA - LEVRIERE 2,0,1662,1
38.089550064,1,1661.0,13.36640234,Europe/Rome,,,,REGIONE SICILIANA - LEVRIERE 1,0,1661,1
38.120121334,1,1660.0,13.329034668,Europe/Rome,,,,REGIONE SICILIANA - LA MANNA,0,1660,1
38.1242833633,1,591.0,13.352841125,Europe/Rome,,,,DANTE - VILLAFRANCA,0,591,1
38.1216548167,1,590.0,13.3418235167,Europe/Rome,,,,DANTE - VILLA MALFITANO,0,590,1
38.1252325,1,1085.0,13.34631583,Europe/Rome,,,,MALASPINA - TURRISI COLONNA,0,1085,1
38.1248112517,1,592.0,13.35476736,Europe/Rome,,,,DANTE - XX SETTEMBRE,0,592,1
38.10478764,1,595.0,13.387422365,Europe/Rome,,,,D'AOSTA - MESSINA MARINE,0,595,1
38.12813167,1,1082.0,13.341105,Europe/Rome,,,,MALASPINA - PIAZZA TOSTI,0,1082,1
38.12745,1,1081.0,13.342365,Europe/Rome,,,,MALASPINA - PIAZZA BUSACCA,0,1081,1
38.10493,1,596.0,13.38779833,Europe/Rome,,,,D'AOSTA - MESSINA MARINE,0,596,1
38.14139487,1,599.0,13.346413605,Europe/Rome,,,,D'AZEGLIO - CORDOVA,0,599,1
38.111740305,1,598.0,13.334683775,Europe/Rome,,,,DARA,0,598,1
38.19955892,1,1089.0,13.2799814267,Europe/Rome,,,,MANDERINO - FILISTO,0,1089,1
38.140926535,1,1088.0,13.328174545,Europe/Rome,,,,MANDALA' - CRUILLAS,0,1088,1
38.12273667,1,714.0,13.326731665,Europe/Rome,,,,DI BLASI - TELESINO,0,714,1
38.1050461,1,1526.0,13.38240579,Europe/Rome,,,,PICCIOTTI - CAPPELLO,0,1526,1
38.12291417,1,713.0,13.324161665,Europe/Rome,,,,DI BLASI - SCUOLA CORRADINI,0,713,1
38.09655,1,1409.0,13.31860833,Europe/Rome,,,,PARUTA - TERRANOVA,0,1409,1
38.09117833,1,1408.0,13.321,Europe/Rome,,,,PARUTA - MAIO ONETO,0,1408,1
38.19152498,1,1403.0,13.301003035,Europe/Rome,,,,PARTANNA MONDELLO - SCORDIA,0,1403,1
38.191481665,1,1402.0,13.301059165,Europe/Rome,,,,PARTANNA MONDELLO - PIAZZA BOLIVAR,0,1402,1
38.19286378,1,1401.0,13.302219315,Europe/Rome,,,,PARTANNA MONDELLO - MATOTTA,0,1401,1
38.192841665,1,1400.0,13.3022525,Europe/Rome,,,,PARTANNA MONDELLO - MATOTTA,0,1400,1
38.09152,1,1407.0,13.32077667,Europe/Rome,,,,PARUTA - MAIO ONETO,0,1407,1
38.093585,1,1406.0,13.31994,Europe/Rome,,,,PARUTA - DUE VANELLE,0,1406,1
38.09341,1,1405.0,13.31997,Europe/Rome,,,,PARUTA - DUE VANELLE,0,1405,1
38.097618525,1,1404.0,13.31809473,Europe/Rome,,,,PARUTA - CALATAFIMI,0,1404,1
38.16191753,1,692.0,13.3337062867,Europe/Rome,,,,DEL FANTE - PIAZZA NISCEMI,0,692,1
38.08285211,1,449.0,13.39651957,Europe/Rome,,,,CIACULLI 3,0,449,1
38.08268743,1,448.0,13.39664698,Europe/Rome,,,,CIACULLI 3,0,448,1
38.13722486,1,1339.0,13.308012775,Europe/Rome,,,,PALADINI - BERRETTARO,0,1339,1
38.13711833,1,1338.0,13.30815333,Europe/Rome,,,,PALADINI - BERRETTARO,0,1338,1
38.1550291,1,693.0,13.3390807933,Europe/Rome,,,,DEL FANTE - PIAZZETTA SALERNO,0,693,1
38.07221396,1,443.0,13.41397271,Europe/Rome,,,,CIACULLI 10,0,443,1
38.07252541,1,442.0,13.4135288,Europe/Rome,,,,CIACULLI 10,0,442,1
38.08656987,1,441.0,13.39181632,Europe/Rome,,,,CIACULLI 1,0,441,1
38.08663954,1,440.0,13.39158162,Europe/Rome,,,,CIACULLI 1,0,440,1
38.08517019,1,447.0,13.39375019,Europe/Rome,,,,CIACULLI 2,0,447,1
38.052075,1,690.0,13.30952,Europe/Rome,,,,DEL FANTE - DEL BERSAGLIERE,0,690,1
38.07070525,1,445.0,13.41589183,Europe/Rome,,,,CIACULLI 11,0,445,1
38.07069364,1,444.0,13.41581807,Europe/Rome,,,,CIACULLI 11,0,444,1
38.1317796,1,1520.0,13.330983145,,,50000.0,,PIAZZALE JOHN LENNON 540,0,1520,1
38.1598344467,1,696.0,13.3352744433,Europe/Rome,,,,DEL FANTE - TEATRO DELLA VERDURA,0,696,1
38.1604444467,1,697.0,13.33476111,Europe/Rome,,,,DEL FANTE - TEATRO DELLA VERDURA,0,697,1
38.1409710667,1,39.0,13.3520026533,Europe/Rome,,,,ALESSI - PUGLISI,0,39,1
38.08864667,1,38.0,13.35497,Europe/Rome,,,,AIRONE - USIGNOLO,0,38,1
38.15543609,1,694.0,13.3386144267,Europe/Rome,,,,DEL FANTE - PIAZZETTA SALERNO,0,694,1
38.0917300033,1,33.0,13.3600455567,Europe/Rome,,,,AIRONE - S. FILIPPO,0,33,1
38.0893075,1,32.0,13.35642,Europe/Rome,,,,AIRONE - FOLAGA,0,32,1
38.089405,1,31.0,13.356745,Europe/Rome,,,,AIRONE - FOLAGA,0,31,1
38.1542342578,1,695.0,13.3395063894,Europe/Rome,,,,DEL FANTE - STADIO DELLE PALME,0,695,1
38.08860667,1,37.0,13.35494667,Europe/Rome,,,,AIRONE - USIGNOLO,0,37,1
38.09031333,1,36.0,13.35869333,Europe/Rome,,,,AIRONE - TROINA,0,36,1
38.090326665,1,35.0,13.35853083,Europe/Rome,,,,AIRONE - TROINA,0,35,1
38.09184437,1,34.0,13.360203225,Europe/Rome,,,,AIRONE - S. FILIPPO,0,34,1
38.120918335,1,1537.0,13.35638,Europe/Rome,,,,PIGNATELLI ARAGONA,0,1537,1
38.09230333,1,640.0,13.41071667,Europe/Rome,,,,DEI MILLE - LAUDICINA,0,640,1
38.0995762433,1,643.0,13.3870564933,Europe/Rome,,,,DEI MILLE - MELI,0,643,1
38.104192895,1,1534.0,13.38405065,Europe/Rome,,,,PICCIOTTI - VOLTA,0,1534,1
38.104225,1,1533.0,13.383845,Europe/Rome,,,,PICCIOTTI - VOLTA,0,1533,1
38.08852167,1,644.0,13.41985167,Europe/Rome,,,,DEI MILLE - MILO GUGGINO,0,644,1
38.1067509,1,1531.0,13.3796411,Europe/Rome,,,,PICCIOTTI - MACELLO,0,1531,1
38.107456895,1,1530.0,13.3782656,Europe/Rome,,,,PICCIOTTI - MACELLO,0,1530,1
38.1030815275,1,649.0,13.3787957875,Europe/Rome,,,,DEI MILLE - S. G. DEI LEBBROSI,0,649,1
38.1046203967,1,648.0,13.3767519333,Europe/Rome,,,,DEI MILLE - PONTE AMMIRAGLIO,0,648,1
38.10528167,1,1539.0,13.342965,Europe/Rome,,,,PISANI - CATALANO,0,1539,1
38.10890273,1,1538.0,13.3627890033,Europe/Rome,,,,PISACANE,0,1538,1
38.151982855,1,339.0,13.3402495737,,,60000.0,,CASSARA',0,339,1
38.1631466633,1,338.0,13.32536222,Europe/Rome,,,,CARTA,0,338,1
38.18334327,1,335.0,13.316442825,Europe/Rome,,,,CARNERA - MARCIANO,0,335,1
38.18163766,1,334.0,13.317568505,Europe/Rome,,,,CARNERA - AGESIA DI SIRACUSA,0,334,1
38.13425667,1,337.0,13.30600167,Europe/Rome,,,,CARRECA - CELONA,0,337,1
38.17857333,1,336.0,13.31666667,Europe/Rome,,,,CAROSIO,0,336,1
38.11111833,1,331.0,13.34784167,Europe/Rome,,,,CAPPUCCINI - DANISINNI,0,331,1
38.11096667,1,330.0,13.34688167,Europe/Rome,,,,CAPPUCCINI,0,330,1
38.19789208,1,333.0,13.316258865,Europe/Rome,,,,CARBONE - TUBEROSA,0,333,1
38.11088333,1,332.0,13.34569,Europe/Rome,,,,CAPPUCCINI,0,332,1
38.1665593675,1,545.0,13.3659712225,Europe/Rome,,,,CRISTOFORO COLOMBO - VERGINE MARIA,0,545,1
38.168178335,1,8.0,13.301861665,Europe/Rome,,,,ACC. A29 MONTE - R.L 23,0,8,1
38.12809684,1,1353.0,13.292980265,Europe/Rome,,,,PANTALICA - TINDARI,0,1353,1
38.127942685,1,1352.0,13.2928278375,Europe/Rome,,,,PANTALICA - CORLEONE,0,1352,1
38.12430385,1,1889.0,13.350328265,Europe/Rome,,,,SAMMARTINO - DEL FERVORE,0,1889,1
38.12770228,1,1888.0,13.34838599,Europe/Rome,,,,SAMMARTINO - CATANIA,0,1888,1
38.08764333,1,1887.0,13.32575,Europe/Rome,,,,SAMBUCIA 9,0,1887,1
38.086965,1,1886.0,13.32437333,Europe/Rome,,,,SAMBUCIA 8,0,1886,1
38.084375,1,1885.0,13.32079,Europe/Rome,,,,SAMBUCIA 7,0,1885,1
38.08369667,1,1884.0,13.31993167,Europe/Rome,,,,SAMBUCIA 6,0,1884,1
38.08370333,1,1883.0,13.31996667,Europe/Rome,,,,SAMBUCIA 4,0,1883,1
38.08444667,1,1882.0,13.320855,Europe/Rome,,,,SAMBUCIA 3,0,1882,1
38.08701333,1,1881.0,13.32450833,Europe/Rome,,,,SAMBUCIA 2,0,1881,1
38.08769167,1,1880.0,13.32584167,Europe/Rome,,,,SAMBUCIA 1,0,1880,1
38.138222925,1,2121.0,13.3497294,Europe/Rome,,,,VILLABIANCA - GENERALE STREVA,0,2121,1
38.1382412267,1,2120.0,13.3498754067,Europe/Rome,,,,VILLABIANCA - GENERALE STREVA,0,2120,1
38.14057833,1,2123.0,13.3482075,Europe/Rome,,,,VILLABIANCA - VACCARINI,0,2123,1
38.1350425233,1,2122.0,13.351947,Europe/Rome,,,,VILLABIANCA - LAURANA,0,2122,1
38.0615014,1,2125.0,13.32125276,Europe/Rome,,,,VILLACIAMBRA 1,0,2125,1
38.14061125,1,2124.0,13.348337985,Europe/Rome,,,,VILLABIANCA - VACCARINI,0,2124,1
38.06044758,1,2127.0,13.31952542,Europe/Rome,,,,VILLACIAMBRA 2,0,2127,1
38.06054262,1,2126.0,13.31957906,Europe/Rome,,,,VILLACIAMBRA 2,0,2126,1
38.07957542,1,2129.0,13.33429232,Europe/Rome,,,,VILLAGRAZIA - AGNETTA,0,2129,1
38.06145833,1,2128.0,13.32129833,Europe/Rome,,,,VILLACIAMBRA 1,0,2128,1
38.18727,1,944.0,13.30086167,Europe/Rome,,,,LANZA DI SCALEA - PIAZZA BOLIVAR,0,944,1
38.13033752,1,1084.0,13.3388086533,Europe/Rome,,,,MALASPINA - PIAZZA ZIINO,0,1084,1
38.17639611,1,942.0,13.31037011,Europe/Rome,,,,LANZA DI SCALEA - M.C.T.C.,0,942,1
38.18791822,1,943.0,13.29984293,Europe/Rome,,,,LANZA DI SCALEA - OLIMPO,0,943,1
38.18321,1,940.0,13.30395667,Europe/Rome,,,,LANZA DI SCALEA - FARAONE,0,940,1
38.183177345,1,941.0,13.303751515,Europe/Rome,,,,LANZA DI SCALEA - FARAONE,0,941,1
38.14616333,1,133.0,13.34279333,Europe/Rome,,,,ARTIGLIERE,0,133,1
38.1461027767,1,132.0,13.34279167,Europe/Rome,,,,ARTIGLIERE,0,132,1
38.09981667,1,131.0,13.34804,Europe/Rome,,,,ARTALE,0,131,1
38.11722399,1,130.0,13.33358265,Europe/Rome,,,,ARCULEO,0,130,1
38.13151007,1,137.0,13.29186849,Europe/Rome,,,,AUGUSTA - CENTURIPE,0,137,1
38.197875,1,136.0,13.3104875,Europe/Rome,,,,ATLANTE - PIAZZA DELLA SERENITA',0,136,1
38.19752684,1,135.0,13.312184145,Europe/Rome,,,,ATLANTE - IFIGENIA,0,135,1
38.178955,1,134.0,13.317415,Europe/Rome,,,,ASCARI,0,134,1
38.13009648,1,139.0,13.29231307,Europe/Rome,,,,AUGUSTA - PIAZZA S. PAOLO,0,139,1
38.13147842,1,138.0,13.29192817,Europe/Rome,,,,AUGUSTA - CENTURIPE,0,138,1
38.12878308,1,1354.0,13.29296485,Europe/Rome,,,,PANTALICA - TINDARI,0,1354,1
38.20590833,1,2019.0,13.32457333,Europe/Rome,,,,TETI,0,2019,1
38.129155185,1,2018.0,13.34531949,Europe/Rome,,,,TERRASANTA - RANDAZZO,0,2018,1
38.1309025,1,2017.0,13.344116665,Europe/Rome,,,,TERRASANTA - COSTANTINO,0,2017,1
38.115993332,1,2011.0,13.328852,Europe/Rome,,,,TASCALANZA - BALESTRATE,0,2011,1
38.11206884,1,2010.0,13.329308382,Europe/Rome,,,,TASCALANZA - AMAP,0,2010,1
38.113269378,1,2013.0,13.329180896,Europe/Rome,,,,TASCALANZA - PORTELLO,0,2013,1
38.10923735,1,2012.0,13.32961917,Europe/Rome,,,,TASCALANZA - PITRE',0,2012,1
38.12307083,1,708.0,13.322465835,Europe/Rome,,,,DI BLASI - RINDONE,0,708,1
38.19550262,1,704.0,13.3335492667,Europe/Rome,,,,DELLE PALME - PRINCIPESSA IOLANDA,0,704,1
38.1956201933,1,705.0,13.33682725,Europe/Rome,,,,DELLE PALME - PRINCIPESSA MARIA,0,705,1
38.1258777767,1,706.0,13.3135966633,Europe/Rome,,,,DI BLASI - PASSO DI RIGANO,0,706,1
38.1258347633,1,707.0,13.3138471233,Europe/Rome,,,,DI BLASI - PASSO DI RIGANO,0,707,1
38.103661665,1,700.0,13.36260583,Europe/Rome,,,,DEL VESPRO - DELLE CLINICHE,0,700,1
38.144576665,1,701.0,13.33234083,Europe/Rome,,,,DELLE ALPI - NEBRODI,0,701,1
38.1956175233,1,702.0,13.3360748833,Europe/Rome,,,,DELLE PALME - PRINCIPESSA GIOVANNA,0,702,1
38.1954048333,1,703.0,13.3337610867,Europe/Rome,,,,DELLE PALME - PRINCIPESSA IOLANDA,0,703,1
38.1436679225,1,88.0,13.36062101,Europe/Rome,,,,AMMIRAGLIO RIZZO - DON ORIONE,0,88,1
38.1433836925,1,89.0,13.3587372425,Europe/Rome,,,,AMMIRAGLIO RIZZO - GENERALE CASCINO,0,89,1
38.12584289,1,82.0,13.35953258,Europe/Rome,,,,AMARI - ROMA,0,82,1
38.12579067,1,83.0,13.359222115,Europe/Rome,,,,AMARI - ROMA,0,83,1
38.126787685,1,80.0,13.36200412,Europe/Rome,,,,AMARI - CRISPI,0,80,1
38.12690107,1,81.0,13.36196774,Europe/Rome,,,,AMARI - CRISPI,0,81,1
38.1443316925,1,86.0,13.3657087725,Europe/Rome,,,,AMMIRAGLIO RIZZO - CALCEDONIO,0,86,1
38.1436385225,1,87.0,13.3606448925,Europe/Rome,,,,AMMIRAGLIO RIZZO - DON ORIONE,0,87,1
38.1962031567,1,84.0,13.3063936533,Europe/Rome,,,,AMARILLI - PARTANNA MONDELLO,0,84,1
38.144253255,1,85.0,13.3657118575,Europe/Rome,,,,AMMIRAGLIO RIZZO - CALCEDONIO,0,85,1
38.0871747,1,762.0,13.36498618,Europe/Rome,,,,ERMELLINO - LEVRIERE,0,762,1
38.1302758067,1,1658.0,13.3302121944,Europe/Rome,,,,REGIONE SICILIANA - GIOTTO,0,1658,1
38.10621725,1,1659.0,13.330512472,Europe/Rome,,,,REGIONE SICILIANA - LA LOGGIA,0,1659,1
38.0870725,1,1652.0,13.35621083,Europe/Rome,,,,REGIONE SICILIANA - DEL CIGNO,0,1652,1
38.12658625,1,1388.0,13.34304625,Europe/Rome,,,,PARLATORE - AURISPA,0,1388,1
38.12335202,1,1650.0,13.3294268,Europe/Rome,,,,REGIONE SICILIANA - DE SANCTIS,0,1650,1
38.1016961133,1,1651.0,13.3298916667,Europe/Rome,,,,REGIONE SICILIANA - DEI FIORI,0,1651,1
38.12363859,1,1656.0,13.3288800083,Europe/Rome,,,,REGIONE SICILIANA - DI BLASI,0,1656,1
38.124954985,1,1657.0,13.3290366167,Europe/Rome,,,,REGIONE SICILIANA - DI GIORGI,0,1657,1
38.14632,1,1654.0,13.328695,Europe/Rome,,,,REGIONE SICILIANA - DELLE MADONIE,0,1654,1
38.1231566333,1,1389.0,13.34434018,Europe/Rome,,,,PARLATORE - DANTE,0,1389,1
38.1227346675,1,586.0,13.346214305,Europe/Rome,,,,DANTE - STAZIONE LOLLI,0,586,1
38.122117105,1,587.0,13.344155475,Europe/Rome,,,,DANTE - VENEZIANO,0,587,1
38.123676392,1,584.0,13.350205844,Europe/Rome,,,,DANTE - SAMMARTINO,0,584,1
38.12259472,1,585.0,13.346002515,Europe/Rome,,,,DANTE - STAZIONE LOLLI,0,585,1
38.123290925,1,582.0,13.34853655,Europe/Rome,,,,DANTE - PIAZZA VIRGILIO,0,582,1
38.123861022,1,583.0,13.35127811,Europe/Rome,,,,DANTE - SAMMARTINO,0,583,1
38.1323352325,1,580.0,13.35368423,Europe/Rome,,,,DALLA CHIESA,0,580,1
38.123179305,1,581.0,13.348546025,Europe/Rome,,,,DANTE - PIAZZA VIRGILIO,0,581,1
38.110273522,1,1984.0,13.36682309,,,20000.0,,STAZIONE CENTRALE - PENSILINA ESTERNA,0,1984,1
38.1221909533,1,588.0,13.3441449267,Europe/Rome,,,,DANTE - VENEZIANO,0,588,1
38.121459165,1,589.0,13.3413175,Europe/Rome,,,,DANTE - VILLA MALFITANO,0,589,1
38.1102491919,1,1985.0,13.3668426733,,,20000.0,,STAZIONE CENTRALE - PENSILINA INTERNA,0,1985,1
38.11010693,1,1982.0,13.36587779,,,20000.0,,STAZIONE CENTRALE - MAUROLICO,0,1982,1
38.1098969675,1,1983.0,13.36545381,,,20000.0,,STAZIONE CENTRALE - ORETO,0,1983,1
38.0960091,1,1436.0,13.40339139,Europe/Rome,,,,PECORI GIRALDI - XXVII MAGGIO,0,1436,1
38.12002,1,1437.0,13.32156833,Europe/Rome,,,,PERPIGNANO - ANAPO,0,1437,1
38.09896667,1,1434.0,13.39548667,Europe/Rome,,,,PECORI GIRALDI - SPERONE,0,1434,1
38.09593417,1,1435.0,13.40304136,Europe/Rome,,,,PECORI GIRALDI - XXVII MAGGIO,0,1435,1
38.09682282,1,1432.0,13.40049729,Europe/Rome,,,,PECORI GIRALDI - FORNI,0,1432,1
38.09727559,1,1433.0,13.3997865,Europe/Rome,,,,PECORI GIRALDI - FORNI,0,1433,1
38.098115,1,1430.0,13.39723333,Europe/Rome,,,,PECORI GIRALDI - CAVALLOTTI,0,1430,1
38.09833626,1,1431.0,13.39725316,Europe/Rome,,,,PECORI GIRALDI - CAVALLOTTI,0,1431,1
38.1102227767,1,1981.0,13.36545,,,20000.0,,STAZIONE CENTRALE - MAQUEDA,0,1981,1
38.11893065,1,1438.0,13.3339905867,Europe/Rome,,,,PERPIGNANO - ARCULEO,0,1438,1
38.11316399,1,1349.0,13.3064805,Europe/Rome,,,,PANDOLFINI,0,1349,1
38.07392427,1,458.0,13.41047645,Europe/Rome,,,,CIACULLI 8,0,458,1
38.07387149,1,459.0,13.41072857,Europe/Rome,,,,CIACULLI 8,0,459,1
38.08161598,1,450.0,13.3979398,Europe/Rome,,,,CIACULLI 4,0,450,1
38.08152667,1,451.0,13.39810167,Europe/Rome,,,,CIACULLI 4,0,451,1
38.08052234,1,452.0,13.39913204,Europe/Rome,,,,CIACULLI 5,0,452,1
38.08054667,1,453.0,13.39916833,Europe/Rome,,,,CIACULLI 5,0,453,1
38.07605894,1,454.0,13.40666369,Europe/Rome,,,,CIACULLI 6,0,454,1
38.07592487,1,455.0,13.40704456,Europe/Rome,,,,CIACULLI 6,0,455,1
38.07483333,1,456.0,13.40880167,Europe/Rome,,,,CIACULLI 7,0,456,1
38.07479333,1,457.0,13.40894167,Europe/Rome,,,,CIACULLI 7,0,457,1
38.098503335,1,656.0,13.392663335,Europe/Rome,,,,DEI MILLE - TORRELUNGA,0,656,1
38.09916667,1,657.0,13.39032673,Europe/Rome,,,,DEI MILLE - TORRELUNGA,0,657,1
38.1068268633,1,654.0,13.3730772033,Europe/Rome,,,,DEI MILLE - TIRO A SEGNO,0,654,1
38.1072436467,1,655.0,13.3725781383,Europe/Rome,,,,DEI MILLE - TIRO A SEGNO,0,655,1
38.09095333,1,652.0,13.41443667,Europe/Rome,,,,DEI MILLE - SCUOLA NATOLI,0,652,1
38.08494,1,653.0,13.42482,Europe/Rome,,,,DEI MILLE - SOTTOVIA,0,653,1
38.1893180971,1,1504.0,13.2865559529,Europe/Rome,,,,PIAZZA TOMMASO NATALE - STAZIONE FS,0,1504,1
38.09085167,1,651.0,13.41463,Europe/Rome,,,,DEI MILLE - SCUOLA NATOLI,0,651,1
38.08945571,1,658.0,13.41859818,Europe/Rome,,,,DEI MILLE - VACCARO,0,658,1
38.08963667,1,659.0,13.41850833,Europe/Rome,,,,DEI MILLE - VACCARO,0,659,1
38.17286889,1,948.0,13.3122944433,Europe/Rome,,,,LANZA DI SCALEA - VELODROMO,0,948,1
38.08027954,1,55.0,13.35411251,Europe/Rome,,,,ALOI 2,0,55,1
38.17245083,1,949.0,13.312445835,Europe/Rome,,,,LANZA DI SCALEA - VELODROMO,0,949,1
38.1674075,1,946.0,13.316468335,Europe/Rome,,,,LANZA DI SCALEA - SAVAGNONE,0,946,1
38.17631333,1,947.0,13.31037667,Europe/Rome,,,,LANZA DI SCALEA - SMITH,0,947,1
38.1679177767,1,945.0,13.31626,Europe/Rome,,,,LANZA DI SCALEA - SAVAGNONE,0,945,1
38.07651818,1,54.0,13.35518807,Europe/Rome,,,,ALOI 1,0,54,1
38.137775,1,322.0,13.36619667,Europe/Rome,,,,CANTIERI - ORTOLANI,0,322,1
38.13774167,1,323.0,13.365825,Europe/Rome,,,,CANTIERI - ORTOLANI,0,323,1
38.13654391,1,320.0,13.36081132,Europe/Rome,,,,CANTIERI - MARVUGLIA,0,320,1
38.1366188,1,321.0,13.36152077,Europe/Rome,,,,CANTIERI - MARVUGLIA,0,321,1
38.11076765,1,326.0,13.34430903,Europe/Rome,,,,CAPPUCCINI - NUCCIO,0,326,1
38.11077333,1,327.0,13.34381833,Europe/Rome,,,,CAPPUCCINI - NUCCIO,0,327,1
38.1811475,1,324.0,13.3121625,Europe/Rome,,,,CAPPAROZZO - S. NICOLA,0,324,1
38.11121167,1,325.0,13.34829167,Europe/Rome,,,,CAPPUCCINI - DANISINNI,0,325,1
38.11069168,1,328.0,13.34247038,Europe/Rome,,,,CAPPUCCINI - QUARTO DEI MILLE,0,328,1
38.11072667,1,329.0,13.34192,Europe/Rome,,,,CAPPUCCINI - QUARTO DEI MILLE,0,329,1
38.13433583,1,1340.0,13.30954583,Europe/Rome,,,,PALADINI - MICHELANGELO,0,1340,1
38.1053,1,1341.0,13.36338167,Europe/Rome,,,,PALERMO,0,1341,1
38.1539209725,1,1995.0,13.3293208225,Europe/Rome,,,,STRASBURGO - DANIMARCA,0,1995,1
38.12652812,1,995.0,13.30916926,Europe/Rome,,,,LEONARDO DA VINCI - RIBOLLA,0,995,1
38.1291787467,1,994.0,13.33152502,Europe/Rome,,,,LEONARDO DA VINCI - PIAZZA EINSTEIN,0,994,1
38.126123335,1,997.0,13.305010835,Europe/Rome,,,,LEONARDO DA VINCI - ROMANIA,0,997,1
38.12675439,1,996.0,13.30973536,Europe/Rome,,,,LEONARDO DA VINCI - RIBOLLA,0,996,1
38.12712362,1,991.0,13.3239187075,Europe/Rome,,,,LEONARDO DA VINCI - GIAQUINTO,0,991,1
38.130386225,1,990.0,13.336411,Europe/Rome,,,,LEONARDO DA VINCI - GALILEI,0,990,1
38.1267846375,1,999.0,13.31867523,Europe/Rome,,,,LEONARDO DA VINCI - RUGGERI,0,999,1
38.1262038467,1,998.0,13.3043065967,Europe/Rome,,,,LEONARDO DA VINCI - ROMANIA,0,998,1
38.07472833,1,120.0,13.304215,Europe/Rome,,,,AQUINO 5 MONTE,0,120,1
38.07467912,1,121.0,13.30418453,Europe/Rome,,,,AQUINO 5 VALLE,0,121,1
38.080963335,1,122.0,13.307653335,Europe/Rome,,,,AQUINO MOLARA - DECANO,0,122,1
38.08093299,1,123.0,13.30765128,Europe/Rome,,,,AQUINO MOLARA - DECANO,0,123,1
38.08036667,1,124.0,13.30567333,Europe/Rome,,,,AQUINO MOLARA - GALATI,0,124,1
38.08036927,1,125.0,13.30578044,Europe/Rome,,,,AQUINO MOLARA - GALATI,0,125,1
38.11148836,1,126.0,13.37207258,Europe/Rome,,,,ARCHIRAFI - LINCOLN,0,126,1
38.10889358,1,127.0,13.37412313,Europe/Rome,,,,ARCHIRAFI - TIRO A SEGNO,0,127,1
38.108915,1,128.0,13.37416833,Europe/Rome,,,,ARCHIRAFI - TIRO A SEGNO,0,128,1
38.12784998,1,520.0,13.361795025,Europe/Rome,,,,CRISPI - PORTO,0,520,1
38.20102971,1,2068.0,13.2806602633,Europe/Rome,,,,TRITONE - NAIADI,0,2068,1
38.100983335,1,2060.0,13.35757,Europe/Rome,,,,TRICOMI - PARLAVECCHIO,0,2060,1
38.10112167,1,2061.0,13.3574725,Europe/Rome,,,,TRICOMI - PARLAVECCHIO,0,2061,1
38.10240167,1,2062.0,13.35548833,Europe/Rome,,,,TRICOMI - UGHETTI,0,2062,1
38.102764165,1,2063.0,13.355026665,Europe/Rome,,,,TRICOMI - UGHETTI,0,2063,1
38.1508554133,1,2064.0,13.3381538344,Europe/Rome,,,,TRINACRIA,0,2064,1
38.2030434033,1,2065.0,13.27948294,Europe/Rome,,,,TRITONE - BARCARELLO,0,2065,1
38.20291889,1,2066.0,13.27953111,Europe/Rome,,,,TRITONE - BARCARELLO,0,2066,1
38.2010577767,1,2067.0,13.28071,Europe/Rome,,,,TRITONE - NAIADI,0,2067,1
38.12914599,1,521.0,13.36137727,Europe/Rome,,,,CRISPI - SCINA',0,521,1
38.09258,1,1748.0,13.346135,Europe/Rome,,,,ROCCELLA - PONTE CORLEONE,0,1748,1
38.0959725,1,1749.0,13.347978335,Europe/Rome,,,,ROCCELLA - RAITI,0,1749,1
38.08936822,1,1645.0,13.37008482,Europe/Rome,,,,REGIONE SICILIANA - CHIAVELLI,0,1645,1
38.08868504,1,1644.0,13.36912816,Europe/Rome,,,,REGIONE SICILIANA - CHIAVELLI,0,1644,1
38.087831665,1,1647.0,13.358431665,Europe/Rome,,,,REGIONE SICILIANA - CINGALLEGRA,0,1647,1
38.08839833,1,1646.0,13.359815,Europe/Rome,,,,REGIONE SICILIANA - CINGALLEGRA,0,1646,1
38.1020516667,1,1641.0,13.3308288867,Europe/Rome,,,,REGIONE SICILIANA - CALATAFIMI,0,1641,1
38.095167008,1,1640.0,13.336860004,Europe/Rome,,,,REGIONE SICILIANA - BRASA,0,1640,1
38.088993954,1,1643.0,13.368202344,Europe/Rome,,,,REGIONE SICILIANA - CHIAVELLI 1,0,1643,1
38.088509165,1,1642.0,13.35976667,Europe/Rome,,,,REGIONE SICILIANA - CAMICO,0,1642,1
38.1317436373,1,1649.0,13.3304262118,Europe/Rome,,,,REGIONE SICILIANA - DE SALIBA,0,1649,1
38.0969205533,1,1648.0,13.3353216667,Europe/Rome,,,,REGIONE SICILIANA - D'ANNA,0,1648,1
38.11657106,1,1742.0,13.30371112,Europe/Rome,,,,ROCCAZZO - ISTITUTO ZOOTECNICO,0,1742,1
38.1234902033,1,1743.0,13.3101077,Europe/Rome,,,,ROCCAZZO - MASSAUA,0,1743,1
38.144277135,1,573.0,13.317881505,Europe/Rome,,,,CRUILLAS 4,0,573,1
38.14336963,1,572.0,13.31985893,Europe/Rome,,,,CRUILLAS 3,0,572,1
38.142366895,1,571.0,13.32330398,Europe/Rome,,,,CRUILLAS 2,0,571,1
38.14093394,1,570.0,13.32697307,Europe/Rome,,,,CRUILLAS 1,0,570,1
38.1395154175,1,576.0,13.3325725,Europe/Rome,,,,D' AREZZO,0,576,1
38.125497315,1,575.0,13.347533295,Europe/Rome,,,,CUSMANO - TURRISI COLONNA,0,575,1
38.12706056,1,574.0,13.346571515,Europe/Rome,,,,CUSMANO - CATANIA,0,574,1
38.143365835,1,600.0,13.3451825,Europe/Rome,,,,D'AZEGLIO - LA MARMORA,0,600,1
38.17600667,1,1421.0,13.31493667,Europe/Rome,,,,PATTI - MORMINO,0,1421,1
38.17612333,1,1420.0,13.314905,Europe/Rome,,,,PATTI - MORMINO,0,1420,1
38.17786167,1,1423.0,13.31409,Europe/Rome,,,,PATTI - PISANO,0,1423,1
38.17151594,1,1422.0,13.31901044,Europe/Rome,,,,PATTI - NAPOLI,0,1422,1
38.09548333,1,1425.0,13.398095,Europe/Rome,,,,PECORAINO - CORSELLI,0,1425,1
38.189116665,1,1394.0,13.29462583,Europe/Rome,,,,PARTANNA MONDELLO - CALCANTE,0,1394,1
38.09438333,1,1427.0,13.40157833,Europe/Rome,,,,PECORAINO - TESTASECCA,0,1427,1
38.09668668,1,1426.0,13.39425042,Europe/Rome,,,,PECORAINO - FAVIER,0,1426,1
38.09975258,1,1429.0,13.39448377,Europe/Rome,,,,PECORI GIRALDI - ALBRICCI,0,1429,1
38.0998845,1,1428.0,13.39374885,Europe/Rome,,,,PECORI GIRALDI - ALBRICCI,0,1428,1
38.20302333,1,731.0,13.31700333,Europe/Rome,,,,DIOMEDE - MERCURIO,0,731,1
38.201435,1,730.0,13.31750833,Europe/Rome,,,,DIOMEDE - AIACE,0,730,1
38.204675,1,733.0,13.31663,Europe/Rome,,,,DIOMEDE - TOLOMEA,0,733,1
38.09182167,1,2157.0,13.356765,Europe/Rome,,,,VILLAGRAZIA - PONTE ROTTO,0,2157,1
38.164908875,1,735.0,13.324740015,Europe/Rome,,,,DOMINO - ASTORINO,0,735,1
38.16973215,1,737.0,13.328132455,Europe/Rome,,,,DUCA DEGLI ABRUZZI - AMMIRAGLIO CAGNI,0,737,1
38.169526515,1,736.0,13.32826573,Europe/Rome,,,,DUCA DEGLI ABRUZZI - AMMIRAGLIO CAGNI,0,736,1
38.16643167,1,739.0,13.330116665,Europe/Rome,,,,DUCA DEGLI ABRUZZI - PALAZZINA CINESE,0,739,1
38.1678075,1,738.0,13.32902,Europe/Rome,,,,DUCA DEGLI ABRUZZI - CITTA' DEI RAGAZZI,0,738,1
38.1487818725,1,1359.0,13.37084405,Europe/Rome,,,,PAPA SERGIO - BOSCO,0,1359,1
38.195354615,1,1393.0,13.30643557,Europe/Rome,,,,PARTANNA MONDELLO - AMARILLI,0,1393,1
38.13491734,1,469.0,13.29454333,Europe/Rome,,,,COMISO - PIRANDELLO,0,469,1
38.13357344,1,468.0,13.29519242,Europe/Rome,,,,COMISO - CUFFARO,0,468,1
38.11289914,1,465.0,13.34908605,Europe/Rome,,,,COLONNA ROTTA - CANGEMI,0,465,1
38.07963982,1,1201.0,13.31222445,Europe/Rome,,,,MOLARA - MIMOSA,0,1201,1
38.13361247,1,467.0,13.29531178,Europe/Rome,,,,COMISO,0,467,1
38.11407565,1,466.0,13.34758669,Europe/Rome,,,,COLONNA ROTTA - RE TANCREDI,0,466,1
38.07332039,1,461.0,13.41205895,Europe/Rome,,,,CIACULLI 9,0,461,1
38.07335206,1,460.0,13.41186851,Europe/Rome,,,,CIACULLI 9,0,460,1
38.098259132,1,463.0,13.389483026,Europe/Rome,,,,CIRINCIONE - CAVALLACCI,0,463,1
38.149308668,1,608.0,13.333588666,Europe/Rome,,,,DE GASPERI - STRASBURGO,0,608,1
38.161866665,1,937.0,13.314639165,Europe/Rome,,,,LA MALFA - TRANCHINA,0,937,1
38.162835,1,936.0,13.313841665,Europe/Rome,,,,LA MALFA - TRANCHINA,0,936,1
38.13161609,1,1519.0,13.330956325,,,50000.0,,PIAZZALE JOHN LENNON 534,0,1519,1
38.13167569,1,1518.0,13.33095968,,,50000.0,,PIAZZALE JOHN LENNON 529,0,1518,1
38.131904075,1,1515.0,13.330993875,,,50000.0,,PIAZZALE JOHN LENNON 501,0,1515,1
38.1319468,1,1514.0,13.331003935,,,50000.0,,PIAZZALE JOHN LENNON 134,0,1514,1
38.13182865,1,1517.0,13.33099052,,,50000.0,,PIAZZALE JOHN LENNON 516,0,1517,1
38.131726855,1,1516.0,13.33097242,,,50000.0,,PIAZZALE JOHN LENNON 513,0,1516,1
38.085005835,1,1274.0,13.32641,Europe/Rome,,,,OLIO DI LINO 1,0,1274,1
38.13112648,1,1510.0,13.3392306,Europe/Rome,,,,PIAZZA ZIINO,0,1510,1
38.132031195,1,1513.0,13.3310093,,,50000.0,,PIAZZALE JOHN LENNON 111,0,1513,1
38.13207919,1,1512.0,13.33101735,,,50000.0,,PIAZZALE JOHN LENNON 110,0,1512,1
38.105093045,1,281.0,13.335313355,Europe/Rome,,,,CALATAFIMI - MARINUZZI,0,281,1
38.080830585,1,1275.0,13.31887901,Europe/Rome,,,,OLIO DI LINO 10,0,1275,1
38.12579225,1,357.0,13.304488955,Europe/Rome,,,,CASTELLANA - CARTAGINE,0,357,1
38.1254976425,1,356.0,13.2965087125,Europe/Rome,,,,CASTELLANA - BRONTE,0,356,1
38.12572279,1,355.0,13.29105945,Europe/Rome,,,,CASTELLANA - BRONTE,0,355,1
38.18451675,1,354.0,13.32416967,Europe/Rome,,,,CASTELFORTE,0,354,1
38.18775711,1,351.0,13.32308739,Europe/Rome,,,,CASTELFORTE - VENERE,0,351,1
38.126522595,1,359.0,13.28582543,Europe/Rome,,,,CASTELLANA - ENEL,0,359,1
38.126666665,1,358.0,13.285164165,Europe/Rome,,,,CASTELLANA - ENEL,0,358,1
38.1917640367,1,1111.0,13.3326488683,Europe/Rome,,,,MARGHERITA DI SAVOIA - VENERE,0,1111,1
38.19336673,1,1110.0,13.3322906667,Europe/Rome,,,,MARGHERITA DI SAVOIA - PIAZZA CABOTO,0,1110,1
38.1193327133,1,1445.0,13.3369564033,Europe/Rome,,,,PERPIGNANO - POLITO,0,1445,1
38.0925075,1,484.0,13.389545,Europe/Rome,,,,CONTE FEDERICO - GRIGOLI,0,484,1
38.10059094,1,289.0,13.3241023933,Europe/Rome,,,,CALATAFIMI - PAULSEN,0,289,1
38.0975739267,1,288.0,13.3166826733,Europe/Rome,,,,CALATAFIMI - PARUTA,0,288,1
38.0999837,1,1793.0,13.38351622,Europe/Rome,,,,S. GIOVANNI DI DIO,0,1793,1
38.110097605,1,280.0,13.347583155,Europe/Rome,,,,CALATAFIMI - MARIA ADELAIDE,0,280,1
38.0949588867,1,283.0,13.3104338867,Europe/Rome,,,,CALATAFIMI - OSPEDALE INGRASSIA,0,283,1
38.10520947,1,282.0,13.33548313,Europe/Rome,,,,CALATAFIMI - MARINUZZI,0,282,1
38.104142385,1,285.0,13.33297296,Europe/Rome,,,,CALATAFIMI - OSPEDALE MILITARE,0,285,1
38.0953512833,1,284.0,13.3112056367,Europe/Rome,,,,CALATAFIMI - OSPEDALE INGRASSIA,0,284,1
38.09822391,1,287.0,13.3183909733,Europe/Rome,,,,CALATAFIMI - PARUTA,0,287,1
38.10058667,1,1114.0,13.35034667,Europe/Rome,,,,MARINI,0,1114,1
38.1191802033,1,1441.0,13.33541253,Europe/Rome,,,,PERPIGNANO - D'AQUINO,0,1441,1
38.10624333,1,1116.0,13.36486,Europe/Rome,,,,MARINUZZI - PALERMO,0,1116,1
38.119604475,1,263.0,13.369362875,Europe/Rome,,,,CALA - S. MARIA DELLA CATENA,0,263,1
38.12004,1,262.0,13.3666775,Europe/Rome,,,,CALA - MERCATO ITTICO,0,262,1
38.11964725,1,261.0,13.366525865,Europe/Rome,,,,CALA - MERCATO ITTICO,0,261,1
38.18849209,1,260.0,13.29397543,Europe/Rome,,,,CADUTI SUL LAVORO 2,0,260,1
38.110832375,1,267.0,13.349360735,Europe/Rome,,,,CALATAFIMI - CAPPUCCINI,0,267,1
38.10441177,1,266.0,13.333499105,Europe/Rome,,,,CALATAFIMI - ARCOLEO,0,266,1
38.10019333,1,1792.0,13.38343333,Europe/Rome,,,,S. GIOVANNI DI DIO,0,1792,1
38.109289705,1,264.0,13.34570852,Europe/Rome,,,,CALATAFIMI - ALBERGO DELLE POVERE,0,264,1
38.103756665,1,286.0,13.33188167,Europe/Rome,,,,CALATAFIMI - OSPEDALE MILITARE,0,286,1
38.0961983233,1,269.0,13.3132755467,Europe/Rome,,,,CALATAFIMI - CASERMA SCIANNA,0,269,1
38.09622388,1,268.0,13.3135279767,Europe/Rome,,,,CALATAFIMI - CASERMA SCIANNA,0,268,1
38.110261665,1,1562.0,13.321043335,Europe/Rome,,,,PITRE' - SAN GABRIELE,0,1562,1
38.1001392271,1,1291.0,13.37157934,Europe/Rome,,,,ORETO - BUONRIPOSO,0,1291,1
38.110554165,1,1564.0,13.3280025,Europe/Rome,,,,PITRE' - SCUOLA BONANNO,0,1564,1
38.10239728,1,258.0,13.37380528,Europe/Rome,,,,BUONRIPOSO - VERGARA,0,258,1
38.11048697,1,1565.0,13.32902916,Europe/Rome,,,,PITRE' - TASCALANZA,0,1565,1
38.188885,1,259.0,13.29435333,Europe/Rome,,,,CADUTI SUL LAVORO 1,0,259,1
38.10975188,1,1566.0,13.315808125,Europe/Rome,,,,PITRE' - VILLA GRIFFOTTA,0,1566,1
38.109798335,1,1567.0,13.31528,Europe/Rome,,,,PITRE' - VILLA GRIFFOTTA,0,1567,1
38.12978412,1,988.0,13.3340186975,Europe/Rome,,,,LEONARDO DA VINCI - CENTRO BORSELLINO,0,988,1
38.113624045,1,982.0,13.334881735,Europe/Rome,,,,L'EMIRO - SCOTO,0,982,1
38.11352833,1,983.0,13.33475833,Europe/Rome,,,,L'EMIRO - SCOTO,0,983,1
38.11505167,1,980.0,13.34190309,Europe/Rome,,,,L'EMIRO - GUERRAZZI,0,980,1
38.11513502,1,981.0,13.34195539,Europe/Rome,,,,L'EMIRO - GUERRAZZI,0,981,1
38.126686135,1,986.0,13.31384975,Europe/Rome,,,,LEONARDO DA VINCI - CASALINI,0,986,1
38.12685989,1,987.0,13.3140631,Europe/Rome,,,,LEONARDO DA VINCI - CASALINI,0,987,1
38.12744975,1,984.0,13.324388885,Europe/Rome,,,,LEONARDO DA VINCI - CAMILLIANI,0,984,1
38.127806065,1,985.0,13.325864375,Europe/Rome,,,,LEONARDO DA VINCI - CARPACCIO,0,985,1
38.07634293,1,115.0,13.31079751,Europe/Rome,,,,AQUINO 2 VALLE,0,115,1
38.1399228225,1,252.0,13.3141728775,Europe/Rome,,,,BRUNELLESCHI - VANVITELLI,0,252,1
38.07502962,1,117.0,13.30966964,Europe/Rome,,,,AQUINO 3 VALLE,0,117,1
38.07508241,1,116.0,13.30968574,Europe/Rome,,,,AQUINO 3 MONTE,0,116,1
38.073135,1,111.0,13.30119167,Europe/Rome,,,,AQUINO - PONTE PARCO,0,111,1
38.07267057,1,110.0,13.29888314,Europe/Rome,,,,AQUINO - FONDO PASQUALINO,0,110,1
38.07738,1,113.0,13.31225667,Europe/Rome,,,,AQUINO 1 VALLE,0,113,1
38.09733667,1,2199.0,13.40464333,Europe/Rome,,,,XXVII MAGGIO - PECORI GIRALDI,0,2199,1
38.074695,1,119.0,13.30553833,Europe/Rome,,,,AQUINO 4 VALLE,0,119,1
38.07473833,1,118.0,13.30557167,Europe/Rome,,,,AQUINO 4 MONTE,0,118,1
38.130309165,1,2079.0,13.325345835,Europe/Rome,,,,UDITORE - CIMABUE,0,2079,1
38.131335,1,2078.0,13.32433,Europe/Rome,,,,UDITORE - ACI,0,2078,1
38.109804786,1,2073.0,13.363300786,Europe/Rome,,,,TUKORY - BALLARO',0,2073,1
38.1087105,1,2072.0,13.358938475,Europe/Rome,,,,TUKORY - ARCOLEO,0,2072,1
38.089705,1,2071.0,13.359795,Europe/Rome,,,,TROINA,0,2071,1
38.08965833,1,2070.0,13.3597,Europe/Rome,,,,TROINA,0,2070,1
38.131206215,1,2077.0,13.324531835,Europe/Rome,,,,UDITORE - ACI,0,2077,1
38.13383927,1,2076.0,13.35903436,Europe/Rome,,,,UCCIARDONE,0,2076,1
38.109228378,1,2075.0,13.36139109,Europe/Rome,,,,TUKORY - PORTA S. AGATA,0,2075,1
38.1083106825,1,2074.0,13.35705321,Europe/Rome,,,,TUKORY - FILICIUZZA,0,2074,1
38.095526665,1,1330.0,13.4281275,Europe/Rome,,,,PADRE KOLBE - GALLETTI,0,1330,1
38.2050568762,1,1630.0,13.3250875454,Europe/Rome,,,,REGINA ELENA - TETI,0,1630,1
38.1975183691,1,1631.0,13.3310505145,Europe/Rome,,,,REGINA ELENA - VALDESI,0,1631,1
38.08663167,1,1632.0,13.35349833,Europe/Rome,,,,REGIONE SICILIANA - ALOI,0,1632,1
38.086376665,1,1633.0,13.3500125,Europe/Rome,,,,REGIONE SICILIANA - ALOI,0,1633,1
38.0960483333,1,1634.0,13.3364922233,Europe/Rome,,,,REGIONE SICILIANA - ALTOFONTE,0,1634,1
38.0965088833,1,1635.0,13.3350077133,Europe/Rome,,,,REGIONE SICILIANA - ALTOFONTE,0,1635,1
38.148453345,1,1636.0,13.3258895,Europe/Rome,,,,REGIONE SICILIANA - ATENASIO,0,1636,1
38.08683833,1,1637.0,13.34886667,Europe/Rome,,,,REGIONE SICILIANA - BARONE SCALA,0,1637,1
38.1502508333,1,1638.0,13.3240838883,Europe/Rome,,,,REGIONE SICILIANA - BELGIO,0,1638,1
38.1312944,1,1639.0,13.329809464,Europe/Rome,,,,REGIONE SICILIANA - BERNINI,0,1639,1
38.1551983538,1,1989.0,13.3281067162,Europe/Rome,,,,STRASBURGO - ALDISIO,0,1989,1
38.141784215,1,568.0,13.32542608,Europe/Rome,,,,CRUILLAS - ODDO,0,568,1
38.142817845,1,569.0,13.321543395,Europe/Rome,,,,CRUILLAS - ONER,0,569,1
38.150483826,1,560.0,13.338882352,Europe/Rome,,,,CROCE ROSSA - DE GASPERI,0,560,1
38.148148952,1,561.0,13.340526598,Europe/Rome,,,,CROCE ROSSA - EMILIA,0,561,1
38.14808,1,562.0,13.340433338,Europe/Rome,,,,CROCE ROSSA - EMILIA,0,562,1
38.146650664,1,563.0,13.341520668,Europe/Rome,,,,CROCE ROSSA - STATUA,0,563,1
38.146300384,1,564.0,13.34160048,Europe/Rome,,,,CROCE ROSSA - STATUA,0,564,1
38.14942587,1,565.0,13.339686924,Europe/Rome,,,,CROCE ROSSA - VALDEMONE,0,565,1
38.14935422,1,566.0,13.339626108,Europe/Rome,,,,CROCE ROSSA - VALDEMONE,0,566,1
38.130169584,1,567.0,13.352674945,,,70000.0,,CROCI,0,567,1
38.13202442,1,1188.0,13.306540902,Europe/Rome,,,,MICHELANGELO 4,0,1188,1
38.131841325,1,1189.0,13.3065857775,Europe/Rome,,,,MICHELANGELO 5,0,1189,1
38.136684998,1,1186.0,13.317497,Europe/Rome,,,,MICHELANGELO 2,0,1186,1
38.13458111,1,1187.0,13.3125422233,Europe/Rome,,,,MICHELANGELO 3,0,1187,1
38.139077915,1,1184.0,13.3275383325,Europe/Rome,,,,MICHELANGELO - SANTUARIO DI CRUILLAS,0,1184,1
38.138753335,1,1185.0,13.3261529175,Europe/Rome,,,,MICHELANGELO 1,0,1185,1
38.1392925,1,1182.0,13.329119165,Europe/Rome,,,,MICHELANGELO - REGIONE SICILIANA,0,1182,1
38.1376142383,1,1183.0,13.3212787967,Europe/Rome,,,,MICHELANGELO - SALERNO,0,1183,1
38.13394333,1,1180.0,13.31106111,Europe/Rome,,,,MICHELANGELO - PALADINI,0,1180,1
38.1335735275,1,1181.0,13.31062232,Europe/Rome,,,,MICHELANGELO - PALADINI,0,1181,1
38.10059053,1,726.0,13.39321509,Europe/Rome,,,,DIAZ - PORTELLA DELLA GINESTRA,0,726,1
38.09944078,1,727.0,13.392211625,Europe/Rome,,,,DIAZ - TORRELUNGA,0,727,1
38.10231707,1,724.0,13.39462727,Europe/Rome,,,,DIAZ - MESSINA MARINE,0,724,1
38.10066335,1,725.0,13.39317888,Europe/Rome,,,,DIAZ - PORTELLA DELLA GINESTRA,0,725,1
38.10132083,1,722.0,13.39380249,Europe/Rome,,,,DIAZ - LA FERLA,0,722,1
38.10241838,1,723.0,13.39460179,Europe/Rome,,,,DIAZ - MESSINA MARINE,0,723,1
38.16997333,1,720.0,13.338785,Europe/Rome,,,,DIANA - NISCEMI,0,720,1
38.10163955,1,721.0,13.39397684,Europe/Rome,,,,DIAZ - LA FERLA,0,721,1
38.1234302133,1,1744.0,13.3101184033,Europe/Rome,,,,ROCCAZZO - MASSAUA,0,1744,1
38.09431619,1,1745.0,13.34751427,Europe/Rome,,,,ROCCELLA - CALABRO',0,1745,1
38.09420537,1,1746.0,13.34735602,Europe/Rome,,,,ROCCELLA - CALLEA,0,1746,1
38.09265912,1,1747.0,13.34603772,Europe/Rome,,,,ROCCELLA - PONTE CORLEONE,0,1747,1
38.1251405167,1,1740.0,13.3122730267,Europe/Rome,,,,ROCCAZZO - DOGALI,0,1740,1
38.11659167,1,1741.0,13.30363667,Europe/Rome,,,,ROCCAZZO - ISTITUTO ZOOTECNICO,0,1741,1
38.099319165,1,728.0,13.39216261,Europe/Rome,,,,DIAZ - TORRELUNGA,0,728,1
38.20111667,1,729.0,13.31779167,Europe/Rome,,,,DIOMEDE - AIACE,0,729,1
38.0968263467,1,1164.0,13.4237375267,Europe/Rome,,,,MESSINA MARINE - ZUCCHETTO,0,1164,1
38.097307425,1,1165.0,13.41897475,Europe/Rome,,,,MESSINA MARINE 1,0,1165,1
38.0981350875,1,1166.0,13.4111546725,Europe/Rome,,,,MESSINA MARINE 2,0,1166,1
38.09843759,1,1167.0,13.4082116125,Europe/Rome,,,,MESSINA MARINE 3,0,1167,1
38.1075683883,1,1160.0,13.381929835,Europe/Rome,,,,MESSINA MARINE - SAETTA,0,1160,1
38.10758327,1,1161.0,13.3820502433,Europe/Rome,,,,MESSINA MARINE - SAETTA,0,1161,1
38.0985345275,1,1162.0,13.4065901425,Europe/Rome,,,,MESSINA MARINE - XXVII MAGGIO,0,1162,1
38.0967258325,1,1163.0,13.422969165,Europe/Rome,,,,MESSINA MARINE - ZUCCHETTO,0,1163,1
38.1018594433,1,1168.0,13.3975655567,Europe/Rome,,,,MESSINA MARINE 4,0,1168,1
38.0983097325,1,1169.0,13.4086403325,Europe/Rome,,,,MESSINA MARINE 3,0,1169,1
38.15429948,1,1366.0,13.37052318,Europe/Rome,,,,PAPA SERGIO - LAVITRANO,0,1366,1
38.07745141,1,48.0,13.35494801,Europe/Rome,,,,ALOI - BAGNARA,0,48,1
38.07904337,1,49.0,13.35450143,Europe/Rome,,,,ALOI - DI GREGORIO,0,49,1
38.088091665,1,46.0,13.354580835,Europe/Rome,,,,ALLODOLA 2,0,46,1
38.08756667,1,47.0,13.35455333,Europe/Rome,,,,ALLODOLA 3,0,47,1
38.13258,1,44.0,13.296535,Europe/Rome,,,,ALIA,0,44,1
38.087886665,1,45.0,13.35462333,Europe/Rome,,,,ALLODOLA 1,0,45,1
38.140033675,1,42.0,13.34949918,Europe/Rome,,,,ALESSI - VILLABIANCA,0,42,1
38.13270632,1,43.0,13.29640612,Europe/Rome,,,,ALIA,0,43,1
38.14095797,1,40.0,13.35171784,Europe/Rome,,,,ALESSI - PUGLISI,0,40,1
38.14020579,1,41.0,13.3501517867,Europe/Rome,,,,ALESSI - TOSELLI,0,41,1
38.109929325,1,1568.0,13.317820315,Europe/Rome,,,,PITRE' 1,0,1568,1
38.11003,1,1569.0,13.318970835,Europe/Rome,,,,PITRE' 2,0,1569,1
38.095406285,1,1298.0,13.374669155,Europe/Rome,,,,ORETO - LO BIANCO,0,1298,1
38.1066174357,1,1299.0,13.3672647886,Europe/Rome,,,,ORETO - MENDOLA,0,1299,1
38.098355666,1,1292.0,13.372777666,Europe/Rome,,,,ORETO - CONCORDIA,0,1292,1
38.1081347171,1,1293.0,13.3663046786,Europe/Rome,,,,ORETO - ERRANTE,0,1293,1
38.0997686362,1,1290.0,13.3717467037,Europe/Rome,,,,ORETO - BUONRIPOSO,0,1290,1
38.110514345,1,1563.0,13.32770139,Europe/Rome,,,,PITRE' - SCUOLA BONANNO,0,1563,1
38.1010449214,1,1296.0,13.3709889843,Europe/Rome,,,,ORETO - LA COLLA,0,1296,1
38.09553522,1,1297.0,13.37446645,Europe/Rome,,,,ORETO - LO BIANCO,0,1297,1
38.1075303286,1,1294.0,13.36676329,Europe/Rome,,,,ORETO - ERRANTE,0,1294,1
38.1006350743,1,1295.0,13.37117833,Europe/Rome,,,,ORETO - LA COLLA,0,1295,1
38.1176717333,1,797.0,13.2895370233,Europe/Rome,,,,FALCONARA 3,0,797,1
38.1478527975,1,1360.0,13.370603895,Europe/Rome,,,,PAPA SERGIO - BOSCO,0,1360,1
38.1174419733,1,796.0,13.2912042567,Europe/Rome,,,,FALCONARA 2,0,796,1
38.1571520925,1,1361.0,13.3708831025,Europe/Rome,,,,PAPA SERGIO - CHIMICA ARENELLA,0,1361,1
38.1177201567,1,795.0,13.29574453,Europe/Rome,,,,FALCONARA 1,0,795,1
38.1178066,1,794.0,13.2958053033,Europe/Rome,,,,FALCONARA 1,0,794,1
38.11902167,1,793.0,13.30001667,Europe/Rome,,,,FALCONARA - S. ISIDORO,0,793,1
38.1191694667,1,792.0,13.3003319467,Europe/Rome,,,,FALCONARA - S. ISIDORO,0,792,1
38.1199776633,1,791.0,13.30509463,Europe/Rome,,,,FALCONARA - ROCCAZZO,0,791,1
38.11464667,1,790.0,13.2946850033,Europe/Rome,,,,FALCONARA - PIAZZA BAIDA,0,790,1
38.09377554,1,472.0,13.38577386,Europe/Rome,,,,CONTE FEDERICO - CHIAZZESE,0,472,1
38.08591754,1,473.0,13.39875117,Europe/Rome,,,,CONTE FEDERICO - CORRAO,0,473,1
38.09024523,1,470.0,13.39360937,Europe/Rome,,,,CONTE FEDERICO - CACCIATORE,0,470,1
38.09032808,1,471.0,13.393549025,Europe/Rome,,,,CONTE FEDERICO - CACCIATORE,0,471,1
38.09193331,1,476.0,13.39048984,Europe/Rome,,,,CONTE FEDERICO - DI VITA,0,476,1
38.07478681,1,477.0,13.4173201,Europe/Rome,,,,CONTE FEDERICO - FAVARELLA,0,477,1
38.08560833,1,474.0,13.39933333,Europe/Rome,,,,CONTE FEDERICO - CORRAO,0,474,1
38.09148332,1,475.0,13.39106664,Europe/Rome,,,,CONTE FEDERICO - DI VITA,0,475,1
38.07478997,1,478.0,13.41739789,Europe/Rome,,,,CONTE FEDERICO - FAVARELLA,0,478,1
38.08853001,1,479.0,13.39610115,Europe/Rome,,,,CONTE FEDERICO - GALEANO,0,479,1
38.1463158625,1,1368.0,13.37010586,Europe/Rome,,,,PAPA SERGIO - OSPEDALE ALBANESE,0,1368,1
38.15172251,1,1369.0,13.370714045,Europe/Rome,,,,PAPA SERGIO - TONNARA,0,1369,1
